{'@type': 'ToolsResultBeans', 'allDataReturned': True, 'cached': True, 'requestId': 'DTTS-time-20171007_04-18-03_697_env-BLKDMZ_hkey-bzcw03_count-8972', 'resultLength': 352520, 'serverNumber': 1, 'success': True, 'timerLogs': {'resultJsonLength': 313867}, 'totalRequestTime': 4, 'resultMap': {'PORTFOLIOS': [{'@type': '_bws.portfolio.Portfolios', 'portfolios': [{'@type': '_bws.Portfolio', 'calculationTime': 472, 'success': True, 'timerLogs': {'enrichPositions.retrieveSecurityData.searchResults': 4, 'enrichPositions.retrieveSecurityData.searchResults.aslBmsEstimated': 95, 'enrichPositions.retrieveSecurityData.searchResults.aslQueryTime': 131, 'enrichPositions.retrieveSecurityData.searchResults.aslSolrElapsedTime': 31, 'enrichPositions.retrieveSecurityData.searchResults.aslTotalElapsedTime': 36, 'enrichPositions.retrieveSecurityData.searchResults.solrQueryTime': 25, 'enrichPositions.retrieveSecurityData.aslQueryTime': 131, 'enrichPositions.retrieveSecurityData': 136, 'analytics': 0, 'enrichPositions': 136}, 'request': {'@type': '_bws.request.PortfolioRequest', 'requestId': 'DTTS-time-20171007_04-18-03_697_env-BLKDMZ_hkey-bzcw03_count-8972', 'requestingApp': 'webtools', 'requestUser': {'@type': '_bws.user.SimpleUser'}, 'timeout': 120, 'useCache': True, 'finalQueries': ['rows=100000000&sort=asOfDate+desc,updateTimestamp+desc&fq=(ticker:("BLK"+OR+"AAPL"+OR+"MALOX"+OR+"IXN"))&fq=-returnsDataOnly_flag:true&fq=-staged_flag:true&fq={!collapse+field=ticker+max=ms(asOfDate)}&q=*&fl=accruedInterest,activeFromDate,aladdinShareClassTicker,aladdinTicker,alternativeOas,amt,analytics_*,annualReportNetExpenseRatio_d,asOfDate,assetClass,assetClassClassification,assetType,availability,barclaySector1,barclaySector2,barclays1Sector,barclays2SubSector,barclays3Industry,barclays4SubIndustry,barclaysCode,barraId,bbIdCompany_s,bbIdComposite,bbIdGlobal,bbIdShareClass,bbIdUnique,bcusip,bestBenchmarkId,blackrockFund,bloombergId,bloombergTicker,bondType,breakdownsJson,breakdowns_*,characteristics_*,child_flag,clientId,convexity,country,countryCode,coupon,currency,currentBalance,currentFace,currentYield,cusip,custom_*,dates_*,description,displayTicker,duration,effectiveDuration,eqPricesNavId,exchangeAcronym_s,exchangeBbCompositeId,exchangeBbId,exchangeCountryCode,exchangeMic,exchangeName,exchangeType,expense,expiryDate,exposureId,externallyAvailable,fitchRating,flags_*,fundFamilyName,fundId,fundLegalName_s,fundName,fundObjective_txt,fundSeriesName,genericUniqueId,geographyClassification,gics1Sector,gics2IndustryGroup,gics3Industry,gics4SubIndustry,gicsCode,gicsSector1,gicsSector2,globalId,immediateIssuer,inceptionDate,incomeYield,invariantId,investStyleClassification,isin,issFtse1Industry,issFtse2SuperSector,issFtse3Sector,issFtse4SubSector,issFtseCode,issuerName,issuerShortName,legalName_s,legalType,listingIdentifiers_sm,listings,mainShareClass,manuallyCreatedAladdinIds_flag,mappedDescription,mappedTicker,mappedType,market,marketCode,marketTypeClassification,maturity,mexid,modelDuration,modifiedDuration,modifiedDurationToWorst,moodyRating,morningstarCategory,morningstarCategoryId,morningstarCategoryIndexId,morningstarFundId,morningstarPerfId,morningstarSecId,muniFundingType,muniSector,oad,oas,oldestShareClassId,parentCusip_s,parentGlobalId,parentId,parentIssuer,parent_flag,pbRatio,peRatio,performance_*,portfolioCode,portfolioCurrency,portfolioId,portfolioName,portfolioType,positions,preRefundedFlag,previousClosePrice,priceAsOfDate,pricePurpose,pricingCusip,productSuiteClassification,productViewClassification,prospectusNetExpenseRatio,putCallFlag,quasarId,realYield,recordType,returnOnAssets,returnOnEquity,returnsDataOnly_flag,ric,riskCusip,scenarios_*,searchable,secType,secYield,secYieldEndDate,secYieldUnsubsidized,sectorDataId,securityGroup,securityId,securityIdType,securityName,securityType,sedol,shareClassType,snpRating,spreadDuration,staged_flag,state,stateStreetCode,staticData_flag,staticYield,status,stdPerfAsOfDate,stdPerfFiveYearAnnualized,stdPerfLoadAdjustedFiveYearAnnualized,stdPerfLoadAdjustedOneYearAnnualized,stdPerfLoadAdjustedSinceInceptionAnnualized,stdPerfLoadAdjustedTenYearAnnualized,stdPerfLoadAdjustedThreeYearAnnualized,stdPerfMarketPriceFiveYearAnnualized,stdPerfMarketPriceOneYearAnnualized,stdPerfMarketPriceSinceInceptionAnnualized,stdPerfMarketPriceTenYearAnnualized,stdPerfMarketPriceThreeYearAnnualized,stdPerfOneYearAnnualized,stdPerfSinceInceptionAnnualized,stdPerfTenYearAnnualized,stdPerfThreeYearAnnualized,subAssetClass,subDescription,substitutionsAll_sm,substitutionsEtfs_sm,substitutionsMutualFunds_sm,taxStatus,taxes_*,ticker,tickerSubstitution,topHoldings_ss,totalMarketCap,translations_*,twelveMonthTrailingYield,uniqueId,updateTimestamp,useOfProceeds,validUntil,valoren,venue_,venue_audience,venue_portfolioType,venue_targetSite,venue_url,venue_userType,venuem_contexts,venuem_contextsMainShareClass,volatilityDuration,wkn,yieldToMaturity,score&defType=edismax'], 'enrichmentMaxSize': 150, 'expectedReturnsParams': {'@type': '_bws.request.portfolio.ExpectedReturnsParams'}, 'exposureParams': {'@type': '_bws.request.portfolio.ExposureParams'}, 'portfolioCalcParams': {'@type': 'com.bfm.webtools.utils.calc.PortfolioCalcParams', 'debugData': {'SECURITY_ID:AAPL@037833100@US0378331005': {'endDate': 20171005, 'returnsId': 'AAPL@037833100@US0378331005', 'returnsType': 'DAILY', 'startDate': 20040402}, 'SECURITY_ID:BLK@09247X101@US09247X1019': {'endDate': 20171005, 'returnsId': 'BLK@09247X101@US09247X1019', 'returnsType': 'DAILY', 'startDate': 20040402}, 'SECURITY_ID:IXN@464287291@US4642872919': {'endDate': 20170930, 'partialStartDate': 20011130, 'returnsId': 'IXN@464287291@US4642872919', 'returnsType': 'MONTHLY', 'startDate': 20011231}, 'SECURITY_ID:MALOX@09251T509@US09251T5092': {'endDate': 20170831, 'partialStartDate': 19890228, 'returnsId': 'MALOX@09251T509@US09251T5092', 'returnsType': 'MONTHLY', 'startDate': 19890331}}, 'endDate': 20170831, 'performanceIdentifierType': 'TICKER', 'returnsType': 'MONTHLY', 'startDate': 20040531}, 'positions': [{'@type': '_bws.portfolio.SimpleHolding', 'identifier': 'BLK', 'uniqueId': '0', 'weight': 25.0}, {'@type': '_bws.portfolio.SimpleHolding', 'identifier': 'AAPL', 'uniqueId': '1', 'weight': 25.0}, {'@type': '_bws.portfolio.SimpleHolding', 'identifier': 'MALOX', 'uniqueId': '2', 'weight': 25.0}, {'@type': '_bws.portfolio.SimpleHolding', 'identifier': 'IXN', 'uniqueId': '3', 'weight': 25.0}], 'riskParams': {'@type': '_bws.request.portfolio.RiskParams'}}, 'analyticsMap': {'turnoverRatio': {'@type': '_bws.result.InvestmentAnalytic', 'harmonicMean': 22.94890510948905, 'name': 'turnoverRatio', 'value': 34.25}, 'analyticsDate': {'@type': '_bws.result.InvestmentAnalytic', 'harmonicMean': 40341659.9990282, 'name': 'analyticsDate', 'value': 10085415.0}, 'returnOnAssets': {'@type': '_bws.result.InvestmentAnalytic', 'harmonicMean': 3.9007556822071745, 'name': 'returnOnAssets', 'value': 8.338235051631928}, 'totalMarketCap': {'@type': '_bws.result.InvestmentAnalytic', 'harmonicMean': 133688.1245169037, 'name': 'totalMarketCap', 'value': 50344.9075}, 'incomeYield': {'@type': '_bws.result.InvestmentAnalytic', 'harmonicMean': 1.917450980392157, 'name': 'incomeYield', 'value': 0.51}, 'fundNetAssets': {'@type': '_bws.result.InvestmentAnalytic', 'harmonicMean': 5620011517.21055, 'name': 'fundNetAssets', 'value': 10132625105.75}, 'numHoldings': {'@type': '_bws.result.InvestmentAnalytic', 'harmonicMean': 410.51449953227313, 'name': 'numHoldings', 'value': 267.25}, 'expense': {'@type': '_bws.result.InvestmentAnalytic', 'harmonicMean': 1.2, 'name': 'expense', 'value': 0.32}, 'annualReportNetExpenseRatio': {'@type': '_bws.result.InvestmentAnalytic', 'harmonicMean': 1.1943307086614172, 'name': 'annualReportNetExpenseRatio', 'value': 0.3175}, 'fundShareClassNetAssets': {'@type': '_bws.result.InvestmentAnalytic', 'harmonicMean': 5347719885.54701, 'name': 'fundShareClassNetAssets', 'value': 4407495421.75}, 'duration': {'@type': '_bws.result.InvestmentAnalytic', 'harmonicMean': 14.0, 'name': 'duration', 'value': 0.875}, 'peRatio': {'@type': '_bws.result.InvestmentAnalytic', 'harmonicMean': 40.008001600320064, 'name': 'peRatio', 'value': 10.103889979451449}, 'oad': {'@type': '_bws.result.InvestmentAnalytic', 'harmonicMean': 14.0, 'name': 'oad', 'value': 0.875}, 'twelveMonthTrailingYield': {'@type': '_bws.result.InvestmentAnalytic', 'harmonicMean': 1.917450980392157, 'name': 'twelveMonthTrailingYield', 'value': 0.51}, 'turnoverRatioDate': {'@type': '_bws.result.InvestmentAnalytic', 'harmonicMean': 40331359.85551502, 'name': 'turnoverRatioDate', 'value': 10082840.5}, 'returnOnEquity': {'@type': '_bws.result.InvestmentAnalytic', 'harmonicMean': 36.317793103448274, 'name': 'returnOnEquity', 'value': 9.7875}, 'averageCoupon': {'@type': '_bws.result.InvestmentAnalytic', 'harmonicMean': 12.72, 'name': 'averageCoupon', 'value': 0.795}, 'effectiveDuration': {'@type': '_bws.result.InvestmentAnalytic', 'harmonicMean': 14.0, 'name': 'effectiveDuration', 'value': 0.875}, 'prospectusNetExpenseRatio': {'@type': '_bws.result.InvestmentAnalytic', 'harmonicMean': 1.2, 'name': 'prospectusNetExpenseRatio', 'value': 0.32}, 'secYieldUnsubsidized': {'@type': '_bws.result.InvestmentAnalytic', 'harmonicMean': 5.24, 'name': 'secYieldUnsubsidized', 'value': 0.3275}, 'pbRatio': {'@type': '_bws.result.InvestmentAnalytic', 'harmonicMean': 5.518687656075385, 'name': 'pbRatio', 'value': 1.5784092276084356}, 'secYield': {'@type': '_bws.result.InvestmentAnalytic', 'harmonicMean': 5.52, 'name': 'secYield', 'value': 0.345}}, 'exposures': {'@type': '_bws.portfolio.Exposures', 'calculationTime': 1, 'assetClass': [{'@type': '_bws.portfolio.ExposureData', 'name': 'Equity', 'value': 0.75, 'y': 75.0}, {'@type': '_bws.portfolio.ExposureData', 'name': 'Allocation', 'value': 0.25, 'y': 25.0}], 'bespokeBreakdowns': {'assetAllocation': [{'@type': '_bws.portfolio.ExposureData', 'contributions': {'AAPL': {'@type': '_bws.portfolio.ExposureData', 'fullName': 'AssetAllocationUSStockNet', 'name': 'usStock', 'relativeValue': 0.25, 'relativeY': 25.0, 'value': 1, 'y': 100}, 'BLK': {'@type': '_bws.portfolio.ExposureData', 'fullName': 'AssetAllocationUSStockNet', 'name': 'usStock', 'relativeValue': 0.25, 'relativeY': 25.0, 'value': 1, 'y': 100}, 'IXN': {'@type': '_bws.portfolio.ExposureData', 'fullName': 'AssetAllocationUSStockNet', 'name': 'usStock', 'relativeValue': 0.187525, 'relativeY': 18.7525, 'value': 0.7501, 'y': 75.01}, 'MALOX': {'@type': '_bws.portfolio.ExposureData', 'fullName': 'AssetAllocationUSStockNet', 'longValue': 0.2801, 'name': 'usStock', 'relativeValue': 0.068925, 'relativeY': 6.8925, 'shortValue': 0.0044, 'value': 0.2757, 'y': 27.57}}, 'fullName': 'AssetAllocationUSStockNet', 'name': 'usStock', 'value': 0.75645, 'y': 75.645}, {'@type': '_bws.portfolio.ExposureData', 'contributions': {'IXN': {'@type': '_bws.portfolio.ExposureData', 'fullName': 'AssetAllocationNonUSStockNet', 'name': 'nonUsStock', 'relativeValue': 0.0621, 'relativeY': 6.21, 'value': 0.2484, 'y': 24.84}, 'MALOX': {'@type': '_bws.portfolio.ExposureData', 'fullName': 'AssetAllocationNonUSStockNet', 'longValue': 0.2597, 'name': 'nonUsStock', 'relativeValue': 0.06415, 'relativeY': 6.415, 'shortValue': 0.0032, 'value': 0.2566, 'y': 25.66}}, 'fullName': 'AssetAllocationNonUSStockNet', 'name': 'nonUsStock', 'value': 0.12625, 'y': 12.625}, {'@type': '_bws.portfolio.ExposureData', 'contributions': {'MALOX': {'@type': '_bws.portfolio.ExposureData', 'fullName': 'AssetAllocationUSBondNet', 'longValue': 0.1897, 'name': 'usBond', 'relativeValue': 0.047325, 'relativeY': 4.7325, 'shortValue': 0.0004, 'value': 0.1893, 'y': 18.93}}, 'fullName': 'AssetAllocationUSBondNet', 'longValue': 0.047425, 'name': 'usBond', 'shortValue': 0.0001, 'value': 0.047325, 'y': 4.7325}, {'@type': '_bws.portfolio.ExposureData', 'contributions': {'MALOX': {'@type': '_bws.portfolio.ExposureData', 'fullName': 'AssetAllocationNonUSBondNet', 'longValue': 0.1408, 'name': 'nonUsBond', 'relativeValue': 0.03515, 'relativeY': 3.515, 'shortValue': 0.0002, 'value': 0.1406, 'y': 14.06}}, 'fullName': 'AssetAllocationNonUSBondNet', 'longValue': 0.0352, 'name': 'nonUsBond', 'shortValue': 5e-05, 'value': 0.03515, 'y': 3.515}, {'@type': '_bws.portfolio.ExposureData', 'contributions': {'IXN': {'@type': '_bws.portfolio.ExposureData', 'fullName': 'AssetAllocationCashNet', 'name': 'cash', 'relativeValue': 0.00035, 'relativeY': 0.035, 'value': 0.0014, 'y': 0.14}, 'MALOX': {'@type': '_bws.portfolio.ExposureData', 'fullName': 'AssetAllocationCashNet', 'longValue': 0.0705, 'name': 'cash', 'relativeValue': 0.01735, 'relativeY': 1.735, 'shortValue': 0.0011, 'value': 0.0694, 'y': 6.94}}, 'fullName': 'AssetAllocationCashNet', 'name': 'cash', 'value': 0.0177, 'y': 1.77}, {'@type': '_bws.portfolio.ExposureData', 'contributions': {'MALOX': {'@type': '_bws.portfolio.ExposureData', 'fullName': 'AssetAllocationOtherNet', 'longValue': 0.0546, 'name': 'other', 'relativeValue': 0.0135, 'relativeY': 1.35, 'shortValue': 0.0006, 'value': 0.054, 'y': 5.4}}, 'fullName': 'AssetAllocationOtherNet', 'longValue': 0.01365, 'name': 'other', 'shortValue': 0.00015, 'value': 0.0135, 'y': 1.35}, {'@type': '_bws.portfolio.ExposureData', 'contributions': {'MALOX': {'@type': '_bws.portfolio.ExposureData', 'fullName': 'AssetAllocationPreferredNet', 'name': 'preferred', 'relativeValue': 0.002325, 'relativeY': 0.2325, 'shortValue': 0.0, 'value': 0.0093, 'y': 0.93}}, 'fullName': 'AssetAllocationPreferredNet', 'name': 'preferred', 'shortValue': 0.0, 'value': 0.002325, 'y': 0.2325}, {'@type': '_bws.portfolio.ExposureData', 'contributions': {'MALOX': {'@type': '_bws.portfolio.ExposureData', 'fullName': 'AssetAllocationConvertibleNet', 'name': 'convertible', 'relativeValue': 0.001275, 'relativeY': 0.1275, 'shortValue': 0.0, 'value': 0.0051, 'y': 0.51}}, 'fullName': 'AssetAllocationConvertibleNet', 'name': 'convertible', 'shortValue': 0.0, 'value': 0.001275, 'y': 0.1275}], 'bondSector': [{'@type': '_bws.portfolio.ExposureData', 'contributions': {'AAPL': {'@type': '_bws.portfolio.ExposureData', 'fullName': 'Unknown', 'name': 'Unknown', 'relativeValue': 0.25, 'relativeY': 25.0, 'shortName': 'Unknown', 'value': 1, 'y': 100}, 'BLK': {'@type': '_bws.portfolio.ExposureData', 'fullName': 'Unknown', 'name': 'Unknown', 'relativeValue': 0.25, 'relativeY': 25.0, 'shortName': 'Unknown', 'value': 1, 'y': 100}, 'IXN': {'@type': '_bws.portfolio.ExposureData', 'fullName': 'Unknown', 'name': 'Unknown', 'relativeValue': 0.24965, 'relativeY': 24.965, 'value': 0.9986, 'y': 99.86}, 'MALOX': {'@type': '_bws.portfolio.ExposureData', 'fullName': 'Unknown', 'name': 'Unknown', 'relativeValue': 0.147925, 'relativeY': 14.792499999999999, 'value': 0.5917, 'y': 59.169999999999995}}, 'fullName': 'Unknown', 'name': 'Unknown', 'value': 0.897575, 'y': 89.7575}, {'@type': '_bws.portfolio.ExposureData', 'contributions': {'MALOX': {'@type': '_bws.portfolio.ExposureData', 'fullName': 'BondPrimarySectorGovernmentNet', 'name': 'government', 'relativeValue': 0.0661, 'relativeY': 6.61, 'shortValue': 0.0, 'value': 0.2644, 'y': 26.44}}, 'fullName': 'BondPrimarySectorGovernmentNet', 'name': 'government', 'shortValue': 0.0, 'value': 0.0661, 'y': 6.61}, {'@type': '_bws.portfolio.ExposureData', 'contributions': {'MALOX': {'@type': '_bws.portfolio.ExposureData', 'fullName': 'BondPrimarySectorCashAndEquivalentsNet', 'longValue': 0.0705, 'name': 'cashAndEquivalents', 'relativeValue': 0.01735, 'relativeY': 1.735, 'shortValue': 0.0011, 'value': 0.0694, 'y': 6.94}}, 'fullName': 'BondPrimarySectorCashAndEquivalentsNet', 'longValue': 0.017625, 'name': 'cashAndEquivalents', 'shortValue': 0.000275, 'value': 0.01735, 'y': 1.735}, {'@type': '_bws.portfolio.ExposureData', 'contributions': {'IXN': {'@type': '_bws.portfolio.ExposureData', 'fullName': 'BondPrimarySectorCorporateBondNet', 'name': 'corporateBond', 'relativeValue': 0.00035, 'relativeY': 0.035, 'value': 0.0014, 'y': 0.14}, 'MALOX': {'@type': '_bws.portfolio.ExposureData', 'fullName': 'BondPrimarySectorCorporateBondNet', 'name': 'corporateBond', 'relativeValue': 0.015675, 'relativeY': 1.5675, 'shortValue': 0.0, 'value': 0.0627, 'y': 6.27}}, 'fullName': 'BondPrimarySectorCorporateBondNet', 'name': 'corporateBond', 'value': 0.016025, 'y': 1.6025}, {'@type': '_bws.portfolio.ExposureData', 'contributions': {'MALOX': {'@type': '_bws.portfolio.ExposureData', 'fullName': 'BondPrimarySectorPreferredNet', 'name': 'preferred', 'relativeValue': 0.001725, 'relativeY': 0.1725, 'shortValue': 0.0, 'value': 0.0069, 'y': 0.69}}, 'fullName': 'BondPrimarySectorPreferredNet', 'name': 'preferred', 'shortValue': 0.0, 'value': 0.001725, 'y': 0.1725}, {'@type': '_bws.portfolio.ExposureData', 'contributions': {'MALOX': {'@type': '_bws.portfolio.ExposureData', 'fullName': 'BondPrimarySectorConvertibleNet', 'name': 'convertible', 'relativeValue': 0.001275, 'relativeY': 0.1275, 'shortValue': 0.0, 'value': 0.0051, 'y': 0.51}}, 'fullName': 'BondPrimarySectorConvertibleNet', 'name': 'convertible', 'shortValue': 0.0, 'value': 0.001275, 'y': 0.1275}, {'@type': '_bws.portfolio.ExposureData', 'contributions': {'MALOX': {'@type': '_bws.portfolio.ExposureData', 'fullName': 'BondPrimarySectorGovernmentRelatedNet', 'name': 'governmentRelated', 'relativeValue': 7.5e-05, 'relativeY': 0.0075, 'shortValue': 0.0, 'value': 0.0003, 'y': 0.03}}, 'fullName': 'BondPrimarySectorGovernmentRelatedNet', 'name': 'governmentRelated', 'shortValue': 0.0, 'value': 7.5e-05, 'y': 0.0075}, {'@type': '_bws.portfolio.ExposureData', 'contributions': {'MALOX': {'@type': '_bws.portfolio.ExposureData', 'fullName': 'BondPrimarySectorBankLoanNet', 'name': 'bankLoan', 'relativeValue': 2.5e-05, 'relativeY': 0.0025, 'shortValue': 0.0, 'value': 0.0001, 'y': 0.01}}, 'fullName': 'BondPrimarySectorBankLoanNet', 'name': 'bankLoan', 'shortValue': 0.0, 'value': 2.5e-05, 'y': 0.0025}, {'@type': '_bws.portfolio.ExposureData', 'contributions': {'MALOX': {'@type': '_bws.portfolio.ExposureData', 'fullName': 'BondPrimarySectorSwapNet', 'longValue': 0.0, 'name': 'swap', 'relativeValue': -0.00015, 'relativeY': -0.015, 'shortValue': 0.0006, 'value': -0.0006, 'y': -0.06}}, 'fullName': 'BondPrimarySectorSwapNet', 'longValue': 0.0, 'name': 'swap', 'shortValue': 0.00015, 'value': -0.00015, 'y': -0.015}], 'capital': [{'@type': '_bws.portfolio.ExposureData', 'contributions': {'AAPL': {'@type': '_bws.portfolio.ExposureData', 'fullName': 'Unknown', 'name': 'Unknown', 'relativeValue': 0.25, 'relativeY': 25.0, 'shortName': 'Unknown', 'value': 1, 'y': 100}, 'BLK': {'@type': '_bws.portfolio.ExposureData', 'fullName': 'Unknown', 'name': 'Unknown', 'relativeValue': 0.25, 'relativeY': 25.0, 'shortName': 'Unknown', 'value': 1, 'y': 100}, 'IXN': {'@type': '_bws.portfolio.ExposureData', 'fullName': 'Unknown', 'name': 'Unknown', 'relativeValue': 0.00035, 'relativeY': 0.035, 'value': 0.0014, 'y': 0.14}, 'MALOX': {'@type': '_bws.portfolio.ExposureData', 'fullName': 'Unknown', 'name': 'Unknown', 'relativeValue': 0.124775, 'relativeY': 12.4775, 'value': 0.4991, 'y': 49.91}}, 'fullName': 'Unknown', 'name': 'Unknown', 'value': 0.625125, 'y': 62.5125}, {'@type': '_bws.portfolio.ExposureData', 'contributions': {'IXN': {'@type': '_bws.portfolio.ExposureData', 'fullName': 'CapitalGiantNet', 'name': 'giant', 'relativeValue': 0.1804, 'relativeY': 18.04, 'value': 0.7216, 'y': 72.16}, 'MALOX': {'@type': '_bws.portfolio.ExposureData', 'fullName': 'CapitalGiantNet', 'longValue': 0.2397, 'name': 'giant', 'relativeValue': 0.058775, 'relativeY': 5.8775, 'shortValue': 0.0046, 'value': 0.2351, 'y': 23.51}}, 'fullName': 'CapitalGiantNet', 'name': 'giant', 'value': 0.239175, 'y': 23.9175}, {'@type': '_bws.portfolio.ExposureData', 'contributions': {'IXN': {'@type': '_bws.portfolio.ExposureData', 'fullName': 'CapitalLargeNet', 'name': 'large', 'relativeValue': 0.055, 'relativeY': 5.5, 'value': 0.22, 'y': 22.0}, 'MALOX': {'@type': '_bws.portfolio.ExposureData', 'fullName': 'CapitalLargeNet', 'longValue': 0.1799, 'name': 'large', 'relativeValue': 0.044375, 'relativeY': 4.4375, 'shortValue': 0.0025, 'value': 0.1775, 'y': 17.75}}, 'fullName': 'CapitalLargeNet', 'name': 'large', 'value': 0.099375, 'y': 9.9375}, {'@type': '_bws.portfolio.ExposureData', 'contributions': {'IXN': {'@type': '_bws.portfolio.ExposureData', 'fullName': 'CapitalMediumNet', 'name': 'medium', 'relativeValue': 0.01425, 'relativeY': 1.425, 'value': 0.057, 'y': 5.7}, 'MALOX': {'@type': '_bws.portfolio.ExposureData', 'fullName': 'CapitalMediumNet', 'name': 'medium', 'relativeValue': 0.017575, 'relativeY': 1.7575, 'shortValue': 0.0, 'value': 0.0703, 'y': 7.03}}, 'fullName': 'CapitalMediumNet', 'name': 'medium', 'value': 0.031825, 'y': 3.1825}, {'@type': '_bws.portfolio.ExposureData', 'contributions': {'MALOX': {'@type': '_bws.portfolio.ExposureData', 'fullName': 'CapitalSmallNet', 'name': 'small', 'relativeValue': 0.003775, 'relativeY': 0.3775, 'shortValue': 0.0, 'value': 0.0151, 'y': 1.51}}, 'fullName': 'CapitalSmallNet', 'name': 'small', 'shortValue': 0.0, 'value': 0.003775, 'y': 0.3775}, {'@type': '_bws.portfolio.ExposureData', 'contributions': {'MALOX': {'@type': '_bws.portfolio.ExposureData', 'fullName': 'CapitalMicroNet', 'name': 'micro', 'relativeValue': 0.000725, 'relativeY': 0.0725, 'shortValue': 0.0, 'value': 0.0029, 'y': 0.29}}, 'fullName': 'CapitalMicroNet', 'name': 'micro', 'shortValue': 0.0, 'value': 0.000725, 'y': 0.0725}], 'country': [{'@type': '_bws.portfolio.ExposureData', 'color': '#293D00', 'contributions': {'AAPL': {'@type': '_bws.portfolio.ExposureData', 'fullName': 'Unknown', 'name': 'Unknown', 'relativeValue': 0.25, 'relativeY': 25.0, 'shortName': 'Unknown', 'value': 1, 'y': 100}, 'BLK': {'@type': '_bws.portfolio.ExposureData', 'fullName': 'Unknown', 'name': 'Unknown', 'relativeValue': 0.25, 'relativeY': 25.0, 'shortName': 'Unknown', 'value': 1, 'y': 100}}, 'fullName': 'Unknown', 'name': 'Unknown', 'shortName': 'Unknown', 'value': 0.5, 'y': 50.0}, {'@type': '_bws.portfolio.ExposureData', 'color': '#94BC5B', 'contributions': {'IXN': {'@type': '_bws.portfolio.ExposureData', 'fullName': 'United States', 'name': 'United States', 'relativeValue': 0.187525, 'relativeY': 18.7525, 'shortName': 'US', 'value': 0.7501, 'y': 75.01}, 'MALOX': {'@type': '_bws.portfolio.ExposureData', 'fullName': 'United States', 'longValue': 0.4697, 'name': 'United States', 'relativeValue': 0.116225, 'relativeY': 11.6225, 'shortName': 'US', 'shortValue': 0.0048, 'value': 0.4649, 'y': 46.49}}, 'fullName': 'United States', 'name': 'United States', 'shortName': 'US', 'value': 0.30375, 'y': 30.375}, {'@type': '_bws.portfolio.ExposureData', 'color': '#BFDF93', 'contributions': {'IXN': {'@type': '_bws.portfolio.ExposureData', 'fullName': 'Japan', 'name': 'Japan', 'relativeValue': 0.013, 'relativeY': 1.3, 'shortName': 'JP', 'value': 0.052, 'y': 5.2}, 'MALOX': {'@type': '_bws.portfolio.ExposureData', 'fullName': 'Japan', 'name': 'Japan', 'relativeValue': 0.02365, 'relativeY': 2.365, 'shortName': 'JP', 'shortValue': 0.003, 'value': 0.0946, 'y': 9.46}}, 'fullName': 'Japan', 'name': 'Japan', 'shortName': 'JP', 'value': 0.03665, 'y': 3.665}, {'@type': '_bws.portfolio.ExposureData', 'color': '#E4F1D1', 'contributions': {'IXN': {'@type': '_bws.portfolio.ExposureData', 'fullName': 'China', 'name': 'China', 'relativeValue': 0.01285, 'relativeY': 1.285, 'shortName': 'CN', 'value': 0.0514, 'y': 5.14}}, 'fullName': 'China', 'name': 'China', 'shortName': 'CN', 'value': 0.01285, 'y': 1.285}, {'@type': '_bws.portfolio.ExposureData', 'color': '#E4F1D1', 'contributions': {'MALOX': {'@type': '_bws.portfolio.ExposureData', 'fullName': 'United Kingdom', 'longValue': 0.0494, 'name': 'United Kingdom', 'relativeValue': 0.012325, 'relativeY': 1.2325, 'shortName': 'GB', 'shortValue': 0.0001, 'value': 0.0493, 'y': 4.93}}, 'fullName': 'United Kingdom', 'longValue': 0.01235, 'name': 'United Kingdom', 'shortName': 'GB', 'shortValue': 2.5e-05, 'value': 0.012325, 'y': 1.2325}, {'@type': '_bws.portfolio.ExposureData', 'color': '#E4F1D1', 'contributions': {'IXN': {'@type': '_bws.portfolio.ExposureData', 'fullName': 'Germany', 'name': 'Germany', 'relativeValue': 0.005675, 'relativeY': 0.5675, 'shortName': 'DE', 'value': 0.0227, 'y': 2.27}, 'MALOX': {'@type': '_bws.portfolio.ExposureData', 'fullName': 'Germany', 'longValue': 0.023, 'name': 'Germany', 'relativeValue': 0.005725, 'relativeY': 0.5725, 'shortName': 'DE', 'shortValue': 0.0001, 'value': 0.0229, 'y': 2.29}}, 'fullName': 'Germany', 'name': 'Germany', 'shortName': 'DE', 'value': 0.0114, 'y': 1.14}, {'@type': '_bws.portfolio.ExposureData', 'color': '#E4F1D1', 'contributions': {'IXN': {'@type': '_bws.portfolio.ExposureData', 'fullName': 'South Korea', 'name': 'South Korea', 'relativeValue': 0.010925, 'relativeY': 1.0925, 'value': 0.0437, 'y': 4.37}}, 'fullName': 'South Korea', 'name': 'South Korea', 'value': 0.010925, 'y': 1.0925}, {'@type': '_bws.portfolio.ExposureData', 'color': '#E4F1D1', 'contributions': {'IXN': {'@type': '_bws.portfolio.ExposureData', 'fullName': 'France', 'name': 'France', 'relativeValue': 0.001775, 'relativeY': 0.1775, 'shortName': 'FR', 'value': 0.0071, 'y': 0.71}, 'MALOX': {'@type': '_bws.portfolio.ExposureData', 'fullName': 'France', 'longValue': 0.0278, 'name': 'France', 'relativeValue': 0.006925, 'relativeY': 0.6925, 'shortName': 'FR', 'shortValue': 0.0001, 'value': 0.0277, 'y': 2.77}}, 'fullName': 'France', 'name': 'France', 'shortName': 'FR', 'value': 0.0087, 'y': 0.87}, {'@type': '_bws.portfolio.ExposureData', 'color': '#E4F1D1', 'contributions': {'IXN': {'@type': '_bws.portfolio.ExposureData', 'fullName': 'Taiwan', 'name': 'Taiwan', 'relativeValue': 0.008425, 'relativeY': 0.8425, 'shortName': 'TW', 'value': 0.0337, 'y': 3.37}}, 'fullName': 'Taiwan', 'name': 'Taiwan', 'shortName': 'TW', 'value': 0.008425, 'y': 0.8425}, {'@type': '_bws.portfolio.ExposureData', 'color': '#E4F1D1', 'contributions': {'IXN': {'@type': '_bws.portfolio.ExposureData', 'fullName': 'Netherlands', 'name': 'Netherlands', 'relativeValue': 0.00295, 'relativeY': 0.295, 'shortName': 'NL', 'value': 0.0118, 'y': 1.18}, 'MALOX': {'@type': '_bws.portfolio.ExposureData', 'fullName': 'Netherlands', 'name': 'Netherlands', 'relativeValue': 0.00355, 'relativeY': 0.355, 'shortName': 'NL', 'value': 0.0142, 'y': 1.42}}, 'fullName': 'Netherlands', 'name': 'Netherlands', 'shortName': 'NL', 'value': 0.0065, 'y': 0.65}, {'@type': '_bws.portfolio.ExposureData', 'color': '#E4F1D1', 'contributions': {'MALOX': {'@type': '_bws.portfolio.ExposureData', 'fullName': 'Australia', 'name': 'Australia', 'relativeValue': 0.00605, 'relativeY': 0.605, 'shortName': 'AU', 'shortValue': 0.0001, 'value': 0.0242, 'y': 2.42}}, 'fullName': 'Australia', 'name': 'Australia', 'shortName': 'AU', 'shortValue': 2.5e-05, 'value': 0.00605, 'y': 0.605}, {'@type': '_bws.portfolio.ExposureData', 'color': '#E4F1D1', 'contributions': {'MALOX': {'@type': '_bws.portfolio.ExposureData', 'fullName': 'Mexico', 'longValue': 0.0143, 'name': 'Mexico', 'relativeValue': 0.00355, 'relativeY': 0.355, 'shortName': 'MX', 'shortValue': 0.0, 'value': 0.0142, 'y': 1.42}}, 'fullName': 'Mexico', 'longValue': 0.003575, 'name': 'Mexico', 'shortName': 'MX', 'shortValue': 0.0, 'value': 0.00355, 'y': 0.355}, {'@type': '_bws.portfolio.ExposureData', 'color': '#E4F1D1', 'contributions': {'MALOX': {'@type': '_bws.portfolio.ExposureData', 'fullName': 'Poland', 'longValue': 0.0136, 'name': 'Poland', 'relativeValue': 0.003325, 'relativeY': 0.3325, 'shortName': 'PL', 'shortValue': 0.0003, 'value': 0.0133, 'y': 1.33}}, 'fullName': 'Poland', 'longValue': 0.0034, 'name': 'Poland', 'shortName': 'PL', 'shortValue': 7.5e-05, 'value': 0.003325, 'y': 0.3325}, {'@type': '_bws.portfolio.ExposureData', 'color': '#E4F1D1', 'contributions': {'MALOX': {'@type': '_bws.portfolio.ExposureData', 'fullName': 'Brazil', 'longValue': 0.0133, 'name': 'Brazil', 'relativeValue': 0.003075, 'relativeY': 0.3075, 'shortName': 'BR', 'shortValue': 0.001, 'value': 0.0123, 'y': 1.23}}, 'fullName': 'Brazil', 'longValue': 0.003325, 'name': 'Brazil', 'shortName': 'BR', 'shortValue': 0.00025, 'value': 0.003075, 'y': 0.3075}, {'@type': '_bws.portfolio.ExposureData', 'color': '#E4F1D1', 'contributions': {'IXN': {'@type': '_bws.portfolio.ExposureData', 'fullName': 'Finland', 'name': 'Finland', 'relativeValue': 0.00135, 'relativeY': 0.135, 'shortName': 'FI', 'value': 0.0054, 'y': 0.54}}, 'fullName': 'Finland', 'name': 'Finland', 'shortName': 'FI', 'value': 0.00135, 'y': 0.135}, {'@type': '_bws.portfolio.ExposureData', 'color': '#E4F1D1', 'contributions': {'IXN': {'@type': '_bws.portfolio.ExposureData', 'fullName': 'Sweden', 'name': 'Sweden', 'relativeValue': 0.00115, 'relativeY': 0.115, 'shortName': 'SE', 'value': 0.0046, 'y': 0.46}}, 'fullName': 'Sweden', 'name': 'Sweden', 'shortName': 'SE', 'value': 0.00115, 'y': 0.115}], 'couponRange': [{'@type': '_bws.portfolio.ExposureData', 'contributions': {'AAPL': {'@type': '_bws.portfolio.ExposureData', 'fullName': 'Unknown', 'name': 'Unknown', 'relativeValue': 0.25, 'relativeY': 25.0, 'shortName': 'Unknown', 'value': 1, 'y': 100}, 'BLK': {'@type': '_bws.portfolio.ExposureData', 'fullName': 'Unknown', 'name': 'Unknown', 'relativeValue': 0.25, 'relativeY': 25.0, 'shortName': 'Unknown', 'value': 1, 'y': 100}, 'IXN': {'@type': '_bws.portfolio.ExposureData', 'fullName': 'Unknown', 'name': 'Unknown', 'relativeValue': 0.25, 'relativeY': 25.0, 'shortName': 'Unknown', 'value': 1, 'y': 100}, 'MALOX': {'@type': '_bws.portfolio.ExposureData', 'fullName': 'Unknown', 'name': 'Unknown', 'relativeValue': 0.1677, 'relativeY': 16.77, 'value': 0.6708, 'y': 67.08}}, 'fullName': 'Unknown', 'name': 'Unknown', 'shortName': 'Unknown', 'value': 0.9177, 'y': 91.77}, {'@type': '_bws.portfolio.ExposureData', 'contributions': {'MALOX': {'@type': '_bws.portfolio.ExposureData', 'fullName': 'CouponRange5Net', 'name': '5', 'relativeValue': 0.025375, 'relativeY': 2.5375, 'shortValue': 0.0, 'value': 0.1015, 'y': 10.15}}, 'fullName': 'CouponRange5Net', 'name': '5', 'shortValue': 0.0, 'value': 0.025375, 'y': 2.5375}, {'@type': '_bws.portfolio.ExposureData', 'contributions': {'MALOX': {'@type': '_bws.portfolio.ExposureData', 'fullName': 'CouponRange6Net', 'name': '6', 'relativeValue': 0.010575, 'relativeY': 1.0575, 'shortValue': 0.0, 'value': 0.0423, 'y': 4.23}}, 'fullName': 'CouponRange6Net', 'name': '6', 'shortValue': 0.0, 'value': 0.010575, 'y': 1.0575}, {'@type': '_bws.portfolio.ExposureData', 'contributions': {'MALOX': {'@type': '_bws.portfolio.ExposureData', 'fullName': 'CouponRange2Net', 'name': '2', 'relativeValue': 0.01045, 'relativeY': 1.045, 'shortValue': 0.0, 'value': 0.0418, 'y': 4.18}}, 'fullName': 'CouponRange2Net', 'name': '2', 'shortValue': 0.0, 'value': 0.01045, 'y': 1.045}, {'@type': '_bws.portfolio.ExposureData', 'contributions': {'MALOX': {'@type': '_bws.portfolio.ExposureData', 'fullName': 'CouponRange13Net', 'name': '13', 'relativeValue': 0.008, 'relativeY': 0.8, 'shortValue': 0.0, 'value': 0.032, 'y': 3.2}}, 'fullName': 'CouponRange13Net', 'name': '13', 'shortValue': 0.0, 'value': 0.008, 'y': 0.8}, {'@type': '_bws.portfolio.ExposureData', 'contributions': {'MALOX': {'@type': '_bws.portfolio.ExposureData', 'fullName': 'CouponRange7Net', 'name': '7', 'relativeValue': 0.006875, 'relativeY': 0.6875, 'shortValue': 0.0, 'value': 0.0275, 'y': 2.75}}, 'fullName': 'CouponRange7Net', 'name': '7', 'shortValue': 0.0, 'value': 0.006875, 'y': 0.6875}, {'@type': '_bws.portfolio.ExposureData', 'contributions': {'MALOX': {'@type': '_bws.portfolio.ExposureData', 'fullName': 'CouponRange8Net', 'name': '8', 'relativeValue': 0.003975, 'relativeY': 0.3975, 'shortValue': 0.0, 'value': 0.0159, 'y': 1.59}}, 'fullName': 'CouponRange8Net', 'name': '8', 'shortValue': 0.0, 'value': 0.003975, 'y': 0.3975}, {'@type': '_bws.portfolio.ExposureData', 'contributions': {'MALOX': {'@type': '_bws.portfolio.ExposureData', 'fullName': 'CouponRange14Net', 'name': '14', 'relativeValue': 0.0037, 'relativeY': 0.37, 'shortValue': 0.0, 'value': 0.0148, 'y': 1.48}}, 'fullName': 'CouponRange14Net', 'name': '14', 'shortValue': 0.0, 'value': 0.0037, 'y': 0.37}, {'@type': '_bws.portfolio.ExposureData', 'contributions': {'MALOX': {'@type': '_bws.portfolio.ExposureData', 'fullName': 'CouponRange11Net', 'longValue': 0.0079, 'name': '11', 'relativeValue': 0.001925, 'relativeY': 0.1925, 'shortValue': 0.0002, 'value': 0.0077, 'y': 0.77}}, 'fullName': 'CouponRange11Net', 'longValue': 0.001975, 'name': '11', 'shortValue': 5e-05, 'value': 0.001925, 'y': 0.1925}, {'@type': '_bws.portfolio.ExposureData', 'contributions': {'MALOX': {'@type': '_bws.portfolio.ExposureData', 'fullName': 'CouponRange21Net', 'name': '21', 'relativeValue': 0.0017, 'relativeY': 0.17, 'shortValue': 0.0, 'value': 0.0068, 'y': 0.68}}, 'fullName': 'CouponRange21Net', 'name': '21', 'shortValue': 0.0, 'value': 0.0017, 'y': 0.17}, {'@type': '_bws.portfolio.ExposureData', 'contributions': {'MALOX': {'@type': '_bws.portfolio.ExposureData', 'fullName': 'CouponRange16Net', 'name': '16', 'relativeValue': 0.001375, 'relativeY': 0.1375, 'shortValue': 0.0, 'value': 0.0055, 'y': 0.55}}, 'fullName': 'CouponRange16Net', 'name': '16', 'shortValue': 0.0, 'value': 0.001375, 'y': 0.1375}, {'@type': '_bws.portfolio.ExposureData', 'contributions': {'MALOX': {'@type': '_bws.portfolio.ExposureData', 'fullName': 'CouponRange12Net', 'name': '12', 'relativeValue': 0.00115, 'relativeY': 0.115, 'shortValue': 0.0, 'value': 0.0046, 'y': 0.46}}, 'fullName': 'CouponRange12Net', 'name': '12', 'shortValue': 0.0, 'value': 0.00115, 'y': 0.115}, {'@type': '_bws.portfolio.ExposureData', 'contributions': {'MALOX': {'@type': '_bws.portfolio.ExposureData', 'fullName': 'CouponRange3Net', 'longValue': 0.005, 'name': '3', 'relativeValue': 0.00115, 'relativeY': 0.115, 'shortValue': 0.0004, 'value': 0.0046, 'y': 0.46}}, 'fullName': 'CouponRange3Net', 'longValue': 0.00125, 'name': '3', 'shortValue': 0.0001, 'value': 0.00115, 'y': 0.115}, {'@type': '_bws.portfolio.ExposureData', 'contributions': {'MALOX': {'@type': '_bws.portfolio.ExposureData', 'fullName': 'CouponRange15Net', 'name': '15', 'relativeValue': 0.0011, 'relativeY': 0.11, 'shortValue': 0.0, 'value': 0.0044, 'y': 0.44}}, 'fullName': 'CouponRange15Net', 'name': '15', 'shortValue': 0.0, 'value': 0.0011, 'y': 0.11}, {'@type': '_bws.portfolio.ExposureData', 'contributions': {'MALOX': {'@type': '_bws.portfolio.ExposureData', 'fullName': 'CouponRange9Net', 'name': '9', 'relativeValue': 0.00105, 'relativeY': 0.105, 'shortValue': 0.0, 'value': 0.0042, 'y': 0.42}}, 'fullName': 'CouponRange9Net', 'name': '9', 'shortValue': 0.0, 'value': 0.00105, 'y': 0.105}, {'@type': '_bws.portfolio.ExposureData', 'contributions': {'MALOX': {'@type': '_bws.portfolio.ExposureData', 'fullName': 'CouponRange18Net', 'name': '18', 'relativeValue': 0.001025, 'relativeY': 0.1025, 'shortValue': 0.0, 'value': 0.0041, 'y': 0.41}}, 'fullName': 'CouponRange18Net', 'name': '18', 'shortValue': 0.0, 'value': 0.001025, 'y': 0.1025}, {'@type': '_bws.portfolio.ExposureData', 'contributions': {'MALOX': {'@type': '_bws.portfolio.ExposureData', 'fullName': 'CouponRange23Net', 'name': '23', 'relativeValue': 0.000725, 'relativeY': 0.0725, 'shortValue': 0.0, 'value': 0.0029, 'y': 0.29}}, 'fullName': 'CouponRange23Net', 'name': '23', 'shortValue': 0.0, 'value': 0.000725, 'y': 0.0725}, {'@type': '_bws.portfolio.ExposureData', 'contributions': {'MALOX': {'@type': '_bws.portfolio.ExposureData', 'fullName': 'CouponRange19Net', 'name': '19', 'relativeValue': 0.0006, 'relativeY': 0.06, 'shortValue': 0.0, 'value': 0.0024, 'y': 0.24}}, 'fullName': 'CouponRange19Net', 'name': '19', 'shortValue': 0.0, 'value': 0.0006, 'y': 0.06}, {'@type': '_bws.portfolio.ExposureData', 'contributions': {'MALOX': {'@type': '_bws.portfolio.ExposureData', 'fullName': 'CouponRange27Net', 'name': '27', 'relativeValue': 0.000575, 'relativeY': 0.0575, 'shortValue': 0.0, 'value': 0.0023, 'y': 0.23}}, 'fullName': 'CouponRange27Net', 'name': '27', 'shortValue': 0.0, 'value': 0.000575, 'y': 0.0575}, {'@type': '_bws.portfolio.ExposureData', 'contributions': {'MALOX': {'@type': '_bws.portfolio.ExposureData', 'fullName': 'CouponRange4Net', 'name': '4', 'relativeValue': 0.000525, 'relativeY': 0.0525, 'shortValue': 0.0, 'value': 0.0021, 'y': 0.21}}, 'fullName': 'CouponRange4Net', 'name': '4', 'shortValue': 0.0, 'value': 0.000525, 'y': 0.0525}, {'@type': '_bws.portfolio.ExposureData', 'contributions': {'MALOX': {'@type': '_bws.portfolio.ExposureData', 'fullName': 'CouponRange10Net', 'name': '10', 'relativeValue': 0.00035, 'relativeY': 0.035, 'shortValue': 0.0, 'value': 0.0014, 'y': 0.14}}, 'fullName': 'CouponRange10Net', 'name': '10', 'shortValue': 0.0, 'value': 0.00035, 'y': 0.035}, {'@type': '_bws.portfolio.ExposureData', 'contributions': {'MALOX': {'@type': '_bws.portfolio.ExposureData', 'fullName': 'CouponRange17Net', 'name': '17', 'relativeValue': 0.0001, 'relativeY': 0.01, 'shortValue': 0.0, 'value': 0.0004, 'y': 0.04}}, 'fullName': 'CouponRange17Net', 'name': '17', 'shortValue': 0.0, 'value': 0.0001, 'y': 0.01}], 'creditQuality': [{'@type': '_bws.portfolio.ExposureData', 'contributions': {'AAPL': {'@type': '_bws.portfolio.ExposureData', 'name': 'other', 'relativeValue': 0.25, 'relativeY': 25.0, 'value': 1, 'y': 100}, 'BLK': {'@type': '_bws.portfolio.ExposureData', 'name': 'other', 'relativeValue': 0.25, 'relativeY': 25.0, 'value': 1, 'y': 100}}, 'name': 'other', 'value': 0.5, 'y': 50.0}, {'@type': '_bws.portfolio.ExposureData', 'contributions': {'IXN': {'@type': '_bws.portfolio.ExposureData', 'fullName': 'Unknown', 'name': 'Unknown', 'relativeValue': 0.25, 'relativeY': 25.0, 'shortName': 'Unknown', 'value': 1, 'y': 100}}, 'fullName': 'Unknown', 'name': 'Unknown', 'shortName': 'Unknown', 'value': 0.25, 'y': 25.0}, {'@type': '_bws.portfolio.ExposureData', 'contributions': {'MALOX': {'@type': '_bws.portfolio.ExposureData', 'fullName': 'CreditQualityAAA', 'name': 'AAA', 'relativeValue': 0.146, 'relativeY': 14.6, 'value': 0.584, 'y': 58.4}}, 'fullName': 'CreditQualityAAA', 'name': 'AAA', 'value': 0.146, 'y': 14.6}, {'@type': '_bws.portfolio.ExposureData', 'contributions': {'MALOX': {'@type': '_bws.portfolio.ExposureData', 'fullName': 'CreditQualityA', 'name': 'A', 'relativeValue': 0.034, 'relativeY': 3.4, 'value': 0.136, 'y': 13.6}}, 'fullName': 'CreditQualityA', 'name': 'A', 'value': 0.034, 'y': 3.4}, {'@type': '_bws.portfolio.ExposureData', 'contributions': {'MALOX': {'@type': '_bws.portfolio.ExposureData', 'fullName': 'CreditQualityBBB', 'name': 'BBB', 'relativeValue': 0.02375, 'relativeY': 2.375, 'value': 0.095, 'y': 9.5}}, 'fullName': 'CreditQualityBBB', 'name': 'BBB', 'value': 0.02375, 'y': 2.375}, {'@type': '_bws.portfolio.ExposureData', 'contributions': {'MALOX': {'@type': '_bws.portfolio.ExposureData', 'fullName': 'CreditQualityBB', 'name': 'BB', 'relativeValue': 0.019, 'relativeY': 1.9, 'value': 0.076, 'y': 7.6}}, 'fullName': 'CreditQualityBB', 'name': 'BB', 'value': 0.019, 'y': 1.9}, {'@type': '_bws.portfolio.ExposureData', 'contributions': {'MALOX': {'@type': '_bws.portfolio.ExposureData', 'fullName': 'CreditQualityAA', 'name': 'AA', 'relativeValue': 0.013, 'relativeY': 1.3, 'value': 0.052, 'y': 5.2}}, 'fullName': 'CreditQualityAA', 'name': 'AA', 'value': 0.013, 'y': 1.3}, {'@type': '_bws.portfolio.ExposureData', 'contributions': {'MALOX': {'@type': '_bws.portfolio.ExposureData', 'fullName': 'CreditQualityB', 'name': 'B', 'relativeValue': 0.0075, 'relativeY': 0.75, 'value': 0.03, 'y': 3.0}}, 'fullName': 'CreditQualityB', 'name': 'B', 'value': 0.0075, 'y': 0.75}, {'@type': '_bws.portfolio.ExposureData', 'contributions': {'MALOX': {'@type': '_bws.portfolio.ExposureData', 'fullName': 'CreditQualityBelowB', 'name': 'BelowB', 'relativeValue': 0.00475, 'relativeY': 0.475, 'value': 0.019, 'y': 1.9}}, 'fullName': 'CreditQualityBelowB', 'name': 'BelowB', 'value': 0.00475, 'y': 0.475}, {'@type': '_bws.portfolio.ExposureData', 'contributions': {'MALOX': {'@type': '_bws.portfolio.ExposureData', 'fullName': 'CreditQualityNotRated', 'name': 'NotRated', 'relativeValue': 0.002, 'relativeY': 0.2, 'value': 0.008, 'y': 0.8}}, 'fullName': 'CreditQualityNotRated', 'name': 'NotRated', 'value': 0.002, 'y': 0.2}], 'maturityRange': [{'@type': '_bws.portfolio.ExposureData', 'contributions': {'AAPL': {'@type': '_bws.portfolio.ExposureData', 'fullName': 'Unknown', 'name': 'Unknown', 'relativeValue': 0.25, 'relativeY': 25.0, 'shortName': 'Unknown', 'value': 1, 'y': 100}, 'BLK': {'@type': '_bws.portfolio.ExposureData', 'fullName': 'Unknown', 'name': 'Unknown', 'relativeValue': 0.25, 'relativeY': 25.0, 'shortName': 'Unknown', 'value': 1, 'y': 100}, 'IXN': {'@type': '_bws.portfolio.ExposureData', 'fullName': 'Unknown', 'name': 'Unknown', 'relativeValue': 0.25, 'relativeY': 25.0, 'shortName': 'Unknown', 'value': 1, 'y': 100}, 'MALOX': {'@type': '_bws.portfolio.ExposureData', 'fullName': 'Unknown', 'name': 'Unknown', 'relativeValue': 0.171875, 'relativeY': 17.1875, 'value': 0.6875, 'y': 68.75}}, 'fullName': 'Unknown', 'name': 'Unknown', 'shortName': 'Unknown', 'value': 0.921875, 'y': 92.1875}, {'@type': '_bws.portfolio.ExposureData', 'contributions': {'MALOX': {'@type': '_bws.portfolio.ExposureData', 'fullName': 'MaturityRange3To5YearsNet', 'longValue': 0.1827, 'name': '3To5Years', 'relativeValue': 0.045525, 'relativeY': 4.5525, 'shortValue': 0.0006, 'value': 0.1821, 'y': 18.21}}, 'fullName': 'MaturityRange3To5YearsNet', 'longValue': 0.045675, 'name': '3To5Years', 'shortValue': 0.00015, 'value': 0.045525, 'y': 4.5525}, {'@type': '_bws.portfolio.ExposureData', 'contributions': {'MALOX': {'@type': '_bws.portfolio.ExposureData', 'fullName': 'MaturityRange7To10YearsNet', 'name': '7To10Years', 'relativeValue': 0.0159, 'relativeY': 1.59, 'shortValue': 0.0, 'value': 0.0636, 'y': 6.36}}, 'fullName': 'MaturityRange7To10YearsNet', 'name': '7To10Years', 'shortValue': 0.0, 'value': 0.0159, 'y': 1.59}, {'@type': '_bws.portfolio.ExposureData', 'contributions': {'MALOX': {'@type': '_bws.portfolio.ExposureData', 'fullName': 'MaturityRange1To3YearsNet', 'name': '1To3Years', 'relativeValue': 0.007225, 'relativeY': 0.7225, 'shortValue': 0.0, 'value': 0.0289, 'y': 2.89}}, 'fullName': 'MaturityRange1To3YearsNet', 'name': '1To3Years', 'shortValue': 0.0, 'value': 0.007225, 'y': 0.7225}, {'@type': '_bws.portfolio.ExposureData', 'contributions': {'MALOX': {'@type': '_bws.portfolio.ExposureData', 'fullName': 'MaturityRange5To7YearsNet', 'name': '5To7Years', 'relativeValue': 0.005925, 'relativeY': 0.5925, 'shortValue': 0.0, 'value': 0.0237, 'y': 2.37}}, 'fullName': 'MaturityRange5To7YearsNet', 'name': '5To7Years', 'shortValue': 0.0, 'value': 0.005925, 'y': 0.5925}, {'@type': '_bws.portfolio.ExposureData', 'contributions': {'MALOX': {'@type': '_bws.portfolio.ExposureData', 'fullName': 'MaturityRange91To182DaysNet', 'name': '91To182Days', 'relativeValue': 0.001325, 'relativeY': 0.1325, 'shortValue': 0.0, 'value': 0.0053, 'y': 0.53}}, 'fullName': 'MaturityRange91To182DaysNet', 'name': '91To182Days', 'shortValue': 0.0, 'value': 0.001325, 'y': 0.1325}, {'@type': '_bws.portfolio.ExposureData', 'contributions': {'MALOX': {'@type': '_bws.portfolio.ExposureData', 'fullName': 'MaturityRange20To30YearsNet', 'name': '20To30Years', 'relativeValue': 0.000775, 'relativeY': 0.0775, 'shortValue': 0.0, 'value': 0.0031, 'y': 0.31}}, 'fullName': 'MaturityRange20To30YearsNet', 'name': '20To30Years', 'shortValue': 0.0, 'value': 0.000775, 'y': 0.0775}, {'@type': '_bws.portfolio.ExposureData', 'contributions': {'MALOX': {'@type': '_bws.portfolio.ExposureData', 'fullName': 'MaturityRangeOver30YearsNet', 'name': 'over30Years', 'relativeValue': 0.0007, 'relativeY': 0.07, 'shortValue': 0.0, 'value': 0.0028, 'y': 0.28}}, 'fullName': 'MaturityRangeOver30YearsNet', 'name': 'over30Years', 'shortValue': 0.0, 'value': 0.0007, 'y': 0.07}, {'@type': '_bws.portfolio.ExposureData', 'contributions': {'MALOX': {'@type': '_bws.portfolio.ExposureData', 'fullName': 'MaturityRange183To364DaysNet', 'name': '183To364Days', 'relativeValue': 0.0004, 'relativeY': 0.04, 'shortValue': 0.0, 'value': 0.0016, 'y': 0.16}}, 'fullName': 'MaturityRange183To364DaysNet', 'name': '183To364Days', 'shortValue': 0.0, 'value': 0.0004, 'y': 0.04}, {'@type': '_bws.portfolio.ExposureData', 'contributions': {'MALOX': {'@type': '_bws.portfolio.ExposureData', 'fullName': 'MaturityRange31To90DaysNet', 'name': '31To90Days', 'relativeValue': 0.00035, 'relativeY': 0.035, 'shortValue': 0.0, 'value': 0.0014, 'y': 0.14}}, 'fullName': 'MaturityRange31To90DaysNet', 'name': '31To90Days', 'shortValue': 0.0, 'value': 0.00035, 'y': 0.035}], 'muni': [{'@type': '_bws.portfolio.ExposureData', 'contributions': {'AAPL': {'@type': '_bws.portfolio.ExposureData', 'fullName': 'Unknown', 'name': 'Unknown', 'relativeValue': 0.25, 'relativeY': 25.0, 'shortName': 'Unknown', 'value': 1, 'y': 100}, 'BLK': {'@type': '_bws.portfolio.ExposureData', 'fullName': 'Unknown', 'name': 'Unknown', 'relativeValue': 0.25, 'relativeY': 25.0, 'shortName': 'Unknown', 'value': 1, 'y': 100}, 'IXN': {'@type': '_bws.portfolio.ExposureData', 'fullName': 'Unknown', 'name': 'Unknown', 'relativeValue': 0.25, 'relativeY': 25.0, 'shortName': 'Unknown', 'value': 1, 'y': 100}, 'MALOX': {'@type': '_bws.portfolio.ExposureData', 'fullName': 'Unknown', 'name': 'Unknown', 'relativeValue': 0.25, 'relativeY': 25.0, 'shortName': 'Unknown', 'value': 1, 'y': 100}}, 'fullName': 'Unknown', 'name': 'Unknown', 'shortName': 'Unknown', 'value': 1.0, 'y': 100.0}], 'region': [{'@type': '_bws.portfolio.ExposureData', 'breakdowns': {'latinAmerica': {'@type': '_bws.portfolio.ExposureData', 'fullName': 'RegionLatinAmericaNet', 'name': 'latinAmerica', 'shortValue': 0.0, 'value': 0.000625, 'y': 0.0625}, 'northAmerica': {'@type': '_bws.portfolio.ExposureData', 'breakdowns': {'canada': {'@type': '_bws.portfolio.ExposureData', 'fullName': 'RegionCanadaNet', 'longValue': 0.00085, 'name': 'canada', 'shortValue': 0.00075, 'value': 0.00125, 'y': 0.125}, 'unitedStates': {'@type': '_bws.portfolio.ExposureData', 'fullName': 'RegionUnitedStatesNet', 'longValue': 0.070025, 'name': 'unitedStates', 'shortValue': 0.0011, 'value': 0.75645, 'y': 75.645}}, 'name': 'northAmerica', 'value': 0.7577, 'y': 75.77}}, 'contributions': {'AAPL': {'@type': '_bws.portfolio.ExposureData', 'breakdowns': {'northAmerica': {'@type': '_bws.portfolio.ExposureData', 'breakdowns': {'unitedStates': {'@type': '_bws.portfolio.ExposureData', 'fullName': 'RegionUnitedStatesNet', 'name': 'unitedStates', 'value': 1, 'y': 100}}, 'name': 'northAmerica', 'value': 1, 'y': 100}}, 'name': 'americas', 'relativeValue': 0.25, 'relativeY': 25.0, 'value': 1, 'y': 100}, 'BLK': {'@type': '_bws.portfolio.ExposureData', 'breakdowns': {'northAmerica': {'@type': '_bws.portfolio.ExposureData', 'breakdowns': {'unitedStates': {'@type': '_bws.portfolio.ExposureData', 'fullName': 'RegionUnitedStatesNet', 'name': 'unitedStates', 'value': 1, 'y': 100}}, 'name': 'northAmerica', 'value': 1, 'y': 100}}, 'name': 'americas', 'relativeValue': 0.25, 'relativeY': 25.0, 'value': 1, 'y': 100}, 'IXN': {'@type': '_bws.portfolio.ExposureData', 'breakdowns': {'latinAmerica': {'@type': '_bws.portfolio.ExposureData', 'fullName': 'RegionLatinAmericaNet', 'name': 'latinAmerica', 'value': 0.0012, 'y': 0.12}, 'northAmerica': {'@type': '_bws.portfolio.ExposureData', 'breakdowns': {'canada': {'@type': '_bws.portfolio.ExposureData', 'fullName': 'RegionCanadaNet', 'name': 'canada', 'value': 0.0045, 'y': 0.45}, 'unitedStates': {'@type': '_bws.portfolio.ExposureData', 'fullName': 'RegionUnitedStatesNet', 'name': 'unitedStates', 'value': 0.7501, 'y': 75.01}}, 'name': 'northAmerica', 'value': 0.7546, 'y': 75.46}}, 'name': 'americas', 'relativeValue': 0.18895, 'relativeY': 18.895, 'value': 0.7558, 'y': 75.58}, 'MALOX': {'@type': '_bws.portfolio.ExposureData', 'breakdowns': {'latinAmerica': {'@type': '_bws.portfolio.ExposureData', 'fullName': 'RegionLatinAmericaNet', 'name': 'latinAmerica', 'shortValue': 0.0, 'value': 0.0013, 'y': 0.13}, 'northAmerica': {'@type': '_bws.portfolio.ExposureData', 'breakdowns': {'canada': {'@type': '_bws.portfolio.ExposureData', 'fullName': 'RegionCanadaNet', 'longValue': 0.0034, 'name': 'canada', 'shortValue': 0.003, 'value': 0.0005, 'y': 0.05}, 'unitedStates': {'@type': '_bws.portfolio.ExposureData', 'fullName': 'RegionUnitedStatesNet', 'longValue': 0.2801, 'name': 'unitedStates', 'shortValue': 0.0044, 'value': 0.2757, 'y': 27.57}}, 'name': 'northAmerica', 'value': 0.2762, 'y': 27.62}}, 'name': 'americas', 'relativeValue': 0.069375, 'relativeY': 6.9375, 'value': 0.2775, 'y': 27.75}}, 'name': 'americas', 'value': 0.758325, 'y': 75.8325}, {'@type': '_bws.portfolio.ExposureData', 'contributions': {'IXN': {'@type': '_bws.portfolio.ExposureData', 'fullName': 'Unknown', 'name': 'Unknown', 'relativeValue': 0.000375000000000025, 'relativeY': 0.0375000000000025, 'value': 0.0015000000000001, 'y': 0.15000000000001}, 'MALOX': {'@type': '_bws.portfolio.ExposureData', 'fullName': 'Unknown', 'name': 'Unknown', 'relativeValue': 0.116925, 'relativeY': 11.6925, 'value': 0.4677, 'y': 46.77}}, 'fullName': 'Unknown', 'name': 'Unknown', 'value': 0.11730000000000003, 'y': 11.730000000000002}, {'@type': '_bws.portfolio.ExposureData', 'breakdowns': {'asiaDeveloped': {'@type': '_bws.portfolio.ExposureData', 'fullName': 'RegionAsiaDevelopedNet', 'name': 'asiaDeveloped', 'shortValue': 0.0, 'value': 0.025, 'y': 2.5}, 'asiaEmerging': {'@type': '_bws.portfolio.ExposureData', 'fullName': 'RegionAsiaEmergingNet', 'name': 'asiaEmerging', 'shortValue': 0.0, 'value': 0.0178, 'y': 1.78}, 'australasia': {'@type': '_bws.portfolio.ExposureData', 'fullName': 'RegionAustralasiaNet', 'name': 'australasia', 'shortValue': 0.0, 'value': 0.00025, 'y': 0.025}, 'japan': {'@type': '_bws.portfolio.ExposureData', 'fullName': 'RegionJapanNet', 'name': 'japan', 'shortValue': 0.0, 'value': 0.033725, 'y': 3.3725}}, 'contributions': {'IXN': {'@type': '_bws.portfolio.ExposureData', 'breakdowns': {'asiaDeveloped': {'@type': '_bws.portfolio.ExposureData', 'fullName': 'RegionAsiaDevelopedNet', 'name': 'asiaDeveloped', 'value': 0.0808, 'y': 8.08}, 'asiaEmerging': {'@type': '_bws.portfolio.ExposureData', 'fullName': 'RegionAsiaEmergingNet', 'name': 'asiaEmerging', 'value': 0.0514, 'y': 5.14}, 'australasia': {'@type': '_bws.portfolio.ExposureData', 'fullName': 'RegionAustralasiaNet', 'name': 'australasia', 'value': 0.0009, 'y': 0.09}, 'japan': {'@type': '_bws.portfolio.ExposureData', 'fullName': 'RegionJapanNet', 'name': 'japan', 'value': 0.052, 'y': 5.2}}, 'name': 'greaterAsia', 'relativeValue': 0.046275, 'relativeY': 4.6275, 'value': 0.1851, 'y': 18.51}, 'MALOX': {'@type': '_bws.portfolio.ExposureData', 'breakdowns': {'asiaDeveloped': {'@type': '_bws.portfolio.ExposureData', 'fullName': 'RegionAsiaDevelopedNet', 'name': 'asiaDeveloped', 'shortValue': 0.0, 'value': 0.0192, 'y': 1.92}, 'asiaEmerging': {'@type': '_bws.portfolio.ExposureData', 'fullName': 'RegionAsiaEmergingNet', 'name': 'asiaEmerging', 'shortValue': 0.0, 'value': 0.0198, 'y': 1.98}, 'australasia': {'@type': '_bws.portfolio.ExposureData', 'fullName': 'RegionAustralasiaNet', 'name': 'australasia', 'shortValue': 0.0, 'value': 0.0001, 'y': 0.01}, 'japan': {'@type': '_bws.portfolio.ExposureData', 'fullName': 'RegionJapanNet', 'name': 'japan', 'shortValue': 0.0, 'value': 0.0829, 'y': 8.29}}, 'name': 'greaterAsia', 'relativeValue': 0.0305, 'relativeY': 3.05, 'value': 0.122, 'y': 12.2}}, 'name': 'greaterAsia', 'value': 0.076775, 'y': 7.6775}, {'@type': '_bws.portfolio.ExposureData', 'breakdowns': {'africaAndMiddleEast': {'@type': '_bws.portfolio.ExposureData', 'breakdowns': {'africa': {'@type': '_bws.portfolio.ExposureData', 'fullName': 'RegionAfricaNet', 'name': 'africa', 'shortValue': 0.0, 'value': 0.0, 'y': 0.0}, 'middleEast': {'@type': '_bws.portfolio.ExposureData', 'fullName': 'RegionMiddleEastNet', 'name': 'middleEast', 'shortValue': 0.0, 'value': 0.00065, 'y': 0.065}}, 'name': 'africaAndMiddleEast', 'value': 0.00065, 'y': 0.065}, 'europeDeveloped': {'@type': '_bws.portfolio.ExposureData', 'breakdowns': {'europeExEuro': {'@type': '_bws.portfolio.ExposureData', 'fullName': 'RegionEuropeExEuroNet', 'name': 'europeExEuro', 'shortValue': 0.0, 'value': 0.005425, 'y': 0.5425}, 'eurozone': {'@type': '_bws.portfolio.ExposureData', 'fullName': 'RegionEurozoneNet', 'longValue': 0.019525, 'name': 'eurozone', 'shortValue': 2.5e-05, 'value': 0.03235, 'y': 3.235}}, 'name': 'europeDeveloped', 'value': 0.037775, 'y': 3.7775}, 'europeEmerging': {'@type': '_bws.portfolio.ExposureData', 'fullName': 'RegionEuropeEmergingNet', 'name': 'europeEmerging', 'shortValue': 0.0, 'value': 7.5e-05, 'y': 0.0075}, 'unitedKingdom': {'@type': '_bws.portfolio.ExposureData', 'fullName': 'RegionUnitedKingdomNet', 'name': 'unitedKingdom', 'shortValue': 2.5e-05, 'value': 0.0091, 'y': 0.91}}, 'contributions': {'IXN': {'@type': '_bws.portfolio.ExposureData', 'breakdowns': {'africaAndMiddleEast': {'@type': '_bws.portfolio.ExposureData', 'breakdowns': {'africa': {'@type': '_bws.portfolio.ExposureData', 'fullName': 'RegionAfricaNet', 'name': 'africa', 'value': 0.0, 'y': 0.0}, 'middleEast': {'@type': '_bws.portfolio.ExposureData', 'fullName': 'RegionMiddleEastNet', 'name': 'middleEast', 'value': 0.0, 'y': 0.0}}, 'name': 'africaAndMiddleEast', 'value': 0.0, 'y': 0.0}, 'europeDeveloped': {'@type': '_bws.portfolio.ExposureData', 'breakdowns': {'europeExEuro': {'@type': '_bws.portfolio.ExposureData', 'fullName': 'RegionEuropeExEuroNet', 'name': 'europeExEuro', 'value': 0.0046, 'y': 0.46}, 'eurozone': {'@type': '_bws.portfolio.ExposureData', 'fullName': 'RegionEurozoneNet', 'name': 'eurozone', 'value': 0.0514, 'y': 5.14}}, 'name': 'europeDeveloped', 'value': 0.056, 'y': 5.6}, 'europeEmerging': {'@type': '_bws.portfolio.ExposureData', 'fullName': 'RegionEuropeEmergingNet', 'name': 'europeEmerging', 'value': 0.0, 'y': 0.0}, 'unitedKingdom': {'@type': '_bws.portfolio.ExposureData', 'fullName': 'RegionUnitedKingdomNet', 'name': 'unitedKingdom', 'value': 0.0016, 'y': 0.16}}, 'name': 'greaterEurope', 'relativeValue': 0.0144, 'relativeY': 1.44, 'value': 0.0576, 'y': 5.76}, 'MALOX': {'@type': '_bws.portfolio.ExposureData', 'breakdowns': {'africaAndMiddleEast': {'@type': '_bws.portfolio.ExposureData', 'breakdowns': {'africa': {'@type': '_bws.portfolio.ExposureData', 'fullName': 'RegionAfricaNet', 'name': 'africa', 'shortValue': 0.0, 'value': 0.0, 'y': 0.0}, 'middleEast': {'@type': '_bws.portfolio.ExposureData', 'fullName': 'RegionMiddleEastNet', 'name': 'middleEast', 'shortValue': 0.0, 'value': 0.0026, 'y': 0.26}}, 'name': 'africaAndMiddleEast', 'value': 0.0026, 'y': 0.26}, 'europeDeveloped': {'@type': '_bws.portfolio.ExposureData', 'breakdowns': {'europeExEuro': {'@type': '_bws.portfolio.ExposureData', 'fullName': 'RegionEuropeExEuroNet', 'name': 'europeExEuro', 'shortValue': 0.0, 'value': 0.0171, 'y': 1.71}, 'eurozone': {'@type': '_bws.portfolio.ExposureData', 'fullName': 'RegionEurozoneNet', 'longValue': 0.0781, 'name': 'eurozone', 'shortValue': 0.0001, 'value': 0.078, 'y': 7.8}}, 'name': 'europeDeveloped', 'value': 0.0951, 'y': 9.51}, 'europeEmerging': {'@type': '_bws.portfolio.ExposureData', 'fullName': 'RegionEuropeEmergingNet', 'name': 'europeEmerging', 'shortValue': 0.0, 'value': 0.0003, 'y': 0.03}, 'unitedKingdom': {'@type': '_bws.portfolio.ExposureData', 'fullName': 'RegionUnitedKingdomNet', 'name': 'unitedKingdom', 'shortValue': 0.0001, 'value': 0.0348, 'y': 3.48}}, 'name': 'greaterEurope', 'relativeValue': 0.0332, 'relativeY': 3.32, 'value': 0.1328, 'y': 13.28}}, 'name': 'greaterEurope', 'value': 0.0476, 'y': 4.76}], 'special': [{'@type': '_bws.portfolio.ExposureData', 'contributions': {'AAPL': {'@type': '_bws.portfolio.ExposureData', 'fullName': 'Unknown', 'name': 'Unknown', 'relativeValue': 0.25, 'relativeY': 25.0, 'shortName': 'Unknown', 'value': 1, 'y': 100}, 'BLK': {'@type': '_bws.portfolio.ExposureData', 'fullName': 'Unknown', 'name': 'Unknown', 'relativeValue': 0.25, 'relativeY': 25.0, 'shortName': 'Unknown', 'value': 1, 'y': 100}}, 'fullName': 'Unknown', 'name': 'Unknown', 'shortName': 'Unknown', 'value': 0.5, 'y': 50.0}, {'@type': '_bws.portfolio.ExposureData', 'contributions': {'IXN': {'@type': '_bws.portfolio.ExposureData', 'fullName': 'SpecialEmergingMarket', 'name': 'EmergingMarket', 'relativeValue': 0.01315, 'relativeY': 1.315, 'value': 0.0526, 'y': 5.26}, 'MALOX': {'@type': '_bws.portfolio.ExposureData', 'fullName': 'SpecialEmergingMarket', 'name': 'EmergingMarket', 'relativeValue': 0.020525, 'relativeY': 2.0525, 'value': 0.0821, 'y': 8.21}}, 'fullName': 'SpecialEmergingMarket', 'name': 'EmergingMarket', 'value': 0.033675, 'y': 3.3675}, {'@type': '_bws.portfolio.ExposureData', 'contributions': {'MALOX': {'@type': '_bws.portfolio.ExposureData', 'fullName': 'SpecialIlliquidate', 'name': 'Illiquidate', 'relativeValue': 0.00325, 'relativeY': 0.325, 'value': 0.013, 'y': 1.3}}, 'fullName': 'SpecialIlliquidate', 'name': 'Illiquidate', 'value': 0.00325, 'y': 0.325}, {'@type': '_bws.portfolio.ExposureData', 'contributions': {'MALOX': {'@type': '_bws.portfolio.ExposureData', 'fullName': 'SpecialOptionAndFuture', 'name': 'OptionAndFuture', 'relativeValue': 0.0002, 'relativeY': 0.02, 'value': 0.0008, 'y': 0.08}}, 'fullName': 'SpecialOptionAndFuture', 'name': 'OptionAndFuture', 'value': 0.0002, 'y': 0.02}], 'stockSector': [{'@type': '_bws.portfolio.ExposureData', 'contributions': {'AAPL': {'@type': '_bws.portfolio.ExposureData', 'fullName': 'StockSectorTechnologyNet', 'name': 'technology', 'relativeValue': 0.25, 'relativeY': 25.0, 'value': 1, 'y': 100}, 'IXN': {'@type': '_bws.portfolio.ExposureData', 'fullName': 'StockSectorTechnologyNet', 'name': 'technology', 'relativeValue': 0.223775, 'relativeY': 22.3775, 'value': 0.8951, 'y': 89.51}, 'MALOX': {'@type': '_bws.portfolio.ExposureData', 'fullName': 'StockSectorTechnologyNet', 'name': 'technology', 'relativeValue': 0.01825, 'relativeY': 1.825, 'shortValue': 0.0, 'value': 0.073, 'y': 7.3}}, 'fullName': 'StockSectorTechnologyNet', 'name': 'technology', 'value': 0.492025, 'y': 49.2025}, {'@type': '_bws.portfolio.ExposureData', 'contributions': {'BLK': {'@type': '_bws.portfolio.ExposureData', 'fullName': 'StockSectorFinancialServicesNet', 'name': 'financialServices', 'relativeValue': 0.25, 'relativeY': 25.0, 'value': 1, 'y': 100}, 'IXN': {'@type': '_bws.portfolio.ExposureData', 'fullName': 'StockSectorFinancialServicesNet', 'name': 'financialServices', 'relativeValue': 0.016375, 'relativeY': 1.6375, 'value': 0.0655, 'y': 6.55}, 'MALOX': {'@type': '_bws.portfolio.ExposureData', 'fullName': 'StockSectorFinancialServicesNet', 'longValue': 0.0689, 'name': 'financialServices', 'relativeValue': 0.016525, 'relativeY': 1.6525, 'shortValue': 0.0029, 'value': 0.0661, 'y': 6.61}}, 'fullName': 'StockSectorFinancialServicesNet', 'name': 'financialServices', 'value': 0.2829, 'y': 28.29}, {'@type': '_bws.portfolio.ExposureData', 'contributions': {'IXN': {'@type': '_bws.portfolio.ExposureData', 'fullName': 'Unknown', 'name': 'Unknown', 'relativeValue': 0.000325, 'relativeY': 0.0325, 'value': 0.0013, 'y': 0.13}, 'MALOX': {'@type': '_bws.portfolio.ExposureData', 'fullName': 'Unknown', 'name': 'Unknown', 'relativeValue': 0.122425, 'relativeY': 12.2425, 'value': 0.4897, 'y': 48.97}}, 'fullName': 'Unknown', 'name': 'Unknown', 'value': 0.12275, 'y': 12.275}, {'@type': '_bws.portfolio.ExposureData', 'contributions': {'IXN': {'@type': '_bws.portfolio.ExposureData', 'fullName': 'StockSectorIndustrialsNet', 'name': 'industrials', 'relativeValue': 0.00805, 'relativeY': 0.805, 'value': 0.0322, 'y': 3.22}, 'MALOX': {'@type': '_bws.portfolio.ExposureData', 'fullName': 'StockSectorIndustrialsNet', 'name': 'industrials', 'relativeValue': 0.01525, 'relativeY': 1.525, 'shortValue': 0.0, 'value': 0.061, 'y': 6.1}}, 'fullName': 'StockSectorIndustrialsNet', 'name': 'industrials', 'value': 0.0233, 'y': 2.33}, {'@type': '_bws.portfolio.ExposureData', 'contributions': {'IXN': {'@type': '_bws.portfolio.ExposureData', 'fullName': 'StockSectorConsumerCyclicalNet', 'name': 'consumerCyclical', 'relativeValue': 0.001475, 'relativeY': 0.1475, 'value': 0.0059, 'y': 0.59}, 'MALOX': {'@type': '_bws.portfolio.ExposureData', 'fullName': 'StockSectorConsumerCyclicalNet', 'name': 'consumerCyclical', 'relativeValue': 0.0175, 'relativeY': 1.75, 'shortValue': 0.0, 'value': 0.07, 'y': 7.0}}, 'fullName': 'StockSectorConsumerCyclicalNet', 'name': 'consumerCyclical', 'value': 0.018975, 'y': 1.8975}, {'@type': '_bws.portfolio.ExposureData', 'contributions': {'MALOX': {'@type': '_bws.portfolio.ExposureData', 'fullName': 'StockSectorHealthcareNet', 'name': 'healthcare', 'relativeValue': 0.015375, 'relativeY': 1.5375, 'shortValue': 0.0, 'value': 0.0615, 'y': 6.15}}, 'fullName': 'StockSectorHealthcareNet', 'name': 'healthcare', 'shortValue': 0.0, 'value': 0.015375, 'y': 1.5375}, {'@type': '_bws.portfolio.ExposureData', 'contributions': {'MALOX': {'@type': '_bws.portfolio.ExposureData', 'fullName': 'StockSectorEnergyNet', 'name': 'energy', 'relativeValue': 0.010575, 'relativeY': 1.0575, 'shortValue': 0.0, 'value': 0.0423, 'y': 4.23}}, 'fullName': 'StockSectorEnergyNet', 'name': 'energy', 'shortValue': 0.0, 'value': 0.010575, 'y': 1.0575}, {'@type': '_bws.portfolio.ExposureData', 'contributions': {'MALOX': {'@type': '_bws.portfolio.ExposureData', 'fullName': 'StockSectorCommunicationServicesNet', 'name': 'communicationServices', 'relativeValue': 0.010125, 'relativeY': 1.0125, 'shortValue': 0.0, 'value': 0.0405, 'y': 4.05}}, 'fullName': 'StockSectorCommunicationServicesNet', 'name': 'communicationServices', 'shortValue': 0.0, 'value': 0.010125, 'y': 1.0125}, {'@type': '_bws.portfolio.ExposureData', 'contributions': {'MALOX': {'@type': '_bws.portfolio.ExposureData', 'fullName': 'StockSectorBasicMaterialsNet', 'name': 'basicMaterials', 'relativeValue': 0.0084, 'relativeY': 0.84, 'shortValue': 0.0, 'value': 0.0336, 'y': 3.36}}, 'fullName': 'StockSectorBasicMaterialsNet', 'name': 'basicMaterials', 'shortValue': 0.0, 'value': 0.0084, 'y': 0.84}, {'@type': '_bws.portfolio.ExposureData', 'contributions': {'MALOX': {'@type': '_bws.portfolio.ExposureData', 'fullName': 'StockSectorConsumerDefensiveNet', 'longValue': 0.0299, 'name': 'consumerDefensive', 'relativeValue': 0.00705, 'relativeY': 0.705, 'shortValue': 0.0017, 'value': 0.0282, 'y': 2.82}}, 'fullName': 'StockSectorConsumerDefensiveNet', 'longValue': 0.007475, 'name': 'consumerDefensive', 'shortValue': 0.000425, 'value': 0.00705, 'y': 0.705}, {'@type': '_bws.portfolio.ExposureData', 'contributions': {'MALOX': {'@type': '_bws.portfolio.ExposureData', 'fullName': 'StockSectorUtilitiesNet', 'name': 'utilities', 'relativeValue': 0.0058, 'relativeY': 0.58, 'shortValue': 0.0, 'value': 0.0232, 'y': 2.32}}, 'fullName': 'StockSectorUtilitiesNet', 'name': 'utilities', 'shortValue': 0.0, 'value': 0.0058, 'y': 0.58}, {'@type': '_bws.portfolio.ExposureData', 'contributions': {'MALOX': {'@type': '_bws.portfolio.ExposureData', 'fullName': 'StockSectorRealEstateNet', 'longValue': 0.0134, 'name': 'realEstate', 'relativeValue': 0.002725, 'relativeY': 0.2725, 'shortValue': 0.0025, 'value': 0.0109, 'y': 1.09}}, 'fullName': 'StockSectorRealEstateNet', 'longValue': 0.00335, 'name': 'realEstate', 'shortValue': 0.000625, 'value': 0.002725, 'y': 0.2725}], 'stockType': [{'@type': '_bws.portfolio.ExposureData', 'contributions': {'AAPL': {'@type': '_bws.portfolio.ExposureData', 'fullName': 'Unknown', 'name': 'Unknown', 'relativeValue': 0.25, 'relativeY': 25.0, 'shortName': 'Unknown', 'value': 1, 'y': 100}, 'BLK': {'@type': '_bws.portfolio.ExposureData', 'fullName': 'Unknown', 'name': 'Unknown', 'relativeValue': 0.25, 'relativeY': 25.0, 'shortName': 'Unknown', 'value': 1, 'y': 100}, 'IXN': {'@type': '_bws.portfolio.ExposureData', 'fullName': 'Unknown', 'name': 'Unknown', 'relativeValue': 0.062475, 'relativeY': 6.2475, 'value': 0.2499, 'y': 24.99}, 'MALOX': {'@type': '_bws.portfolio.ExposureData', 'fullName': 'Unknown', 'name': 'Unknown', 'relativeValue': 0.24895, 'relativeY': 24.895, 'value': 0.9958, 'y': 99.58}}, 'fullName': 'Unknown', 'name': 'Unknown', 'value': 0.811425, 'y': 81.1425}, {'@type': '_bws.portfolio.ExposureData', 'contributions': {'IXN': {'@type': '_bws.portfolio.ExposureData', 'fullName': 'StockTypeCyclicalNet', 'name': 'cyclical', 'relativeValue': 0.09465, 'relativeY': 9.465, 'value': 0.3786, 'y': 37.86}}, 'fullName': 'StockTypeCyclicalNet', 'name': 'cyclical', 'value': 0.09465, 'y': 9.465}, {'@type': '_bws.portfolio.ExposureData', 'contributions': {'IXN': {'@type': '_bws.portfolio.ExposureData', 'fullName': 'StockTypeAggressiveGrowthNet', 'name': 'aggressiveGrowth', 'relativeValue': 0.041225, 'relativeY': 4.1225, 'value': 0.1649, 'y': 16.49}}, 'fullName': 'StockTypeAggressiveGrowthNet', 'name': 'aggressiveGrowth', 'value': 0.041225, 'y': 4.1225}, {'@type': '_bws.portfolio.ExposureData', 'contributions': {'IXN': {'@type': '_bws.portfolio.ExposureData', 'fullName': 'StockTypeSlowGrowthNet', 'name': 'slowGrowth', 'relativeValue': 0.037325, 'relativeY': 3.7325, 'value': 0.1493, 'y': 14.93}, 'MALOX': {'@type': '_bws.portfolio.ExposureData', 'fullName': 'StockTypeSlowGrowthNet', 'name': 'slowGrowth', 'relativeValue': 0.000425, 'relativeY': 0.0425, 'shortValue': 0.0017, 'value': 0.0017, 'y': 0.17}}, 'fullName': 'StockTypeSlowGrowthNet', 'name': 'slowGrowth', 'value': 0.03775, 'y': 3.775}, {'@type': '_bws.portfolio.ExposureData', 'contributions': {'IXN': {'@type': '_bws.portfolio.ExposureData', 'fullName': 'StockTypeClassicGrowthNet', 'name': 'classicGrowth', 'relativeValue': 0.00585, 'relativeY': 0.585, 'value': 0.0234, 'y': 2.34}}, 'fullName': 'StockTypeClassicGrowthNet', 'name': 'classicGrowth', 'value': 0.00585, 'y': 0.585}, {'@type': '_bws.portfolio.ExposureData', 'contributions': {'IXN': {'@type': '_bws.portfolio.ExposureData', 'fullName': 'StockTypeOtherNet', 'name': 'other', 'relativeValue': 0.004325, 'relativeY': 0.4325, 'value': 0.0173, 'y': 1.73}}, 'fullName': 'StockTypeOtherNet', 'name': 'other', 'value': 0.004325, 'y': 0.4325}, {'@type': '_bws.portfolio.ExposureData', 'contributions': {'IXN': {'@type': '_bws.portfolio.ExposureData', 'fullName': 'StockTypeSpeculativeGrowthNet', 'name': 'speculativeGrowth', 'relativeValue': 0.00245, 'relativeY': 0.245, 'value': 0.0098, 'y': 0.98}}, 'fullName': 'StockTypeSpeculativeGrowthNet', 'name': 'speculativeGrowth', 'value': 0.00245, 'y': 0.245}, {'@type': '_bws.portfolio.ExposureData', 'contributions': {'IXN': {'@type': '_bws.portfolio.ExposureData', 'fullName': 'StockTypeDistressedNet', 'name': 'distressed', 'relativeValue': 0.0017, 'relativeY': 0.17, 'value': 0.0068, 'y': 0.68}}, 'fullName': 'StockTypeDistressedNet', 'name': 'distressed', 'value': 0.0017, 'y': 0.17}, {'@type': '_bws.portfolio.ExposureData', 'contributions': {'MALOX': {'@type': '_bws.portfolio.ExposureData', 'fullName': 'StockTypeHardAssetNet', 'name': 'hardAsset', 'relativeValue': 0.000625, 'relativeY': 0.0625, 'shortValue': 0.0025, 'value': 0.0025, 'y': 0.25}}, 'fullName': 'StockTypeHardAssetNet', 'name': 'hardAsset', 'shortValue': 0.000625, 'value': 0.000625, 'y': 0.0625}], 'styleBox': [{'@type': '_bws.portfolio.ExposureData', 'contributions': {'AAPL': {'@type': '_bws.portfolio.ExposureData', 'fullName': 'StyleBoxLargeGrowthNet', 'name': 'largeGrowth', 'relativeValue': 0.25, 'relativeY': 25.0, 'value': 1, 'y': 100}, 'IXN': {'@type': '_bws.portfolio.ExposureData', 'fullName': 'StyleBoxLargeGrowthNet', 'name': 'largeGrowth', 'relativeValue': 0.1473, 'relativeY': 14.73, 'value': 0.5892, 'y': 58.92}, 'MALOX': {'@type': '_bws.portfolio.ExposureData', 'fullName': 'StyleBoxLargeGrowthNet', 'name': 'largeGrowth', 'relativeValue': 0.0335, 'relativeY': 3.35, 'shortValue': 0.0, 'value': 0.134, 'y': 13.4}}, 'fullName': 'StyleBoxLargeGrowthNet', 'name': 'largeGrowth', 'value': 0.4308, 'y': 43.08}, {'@type': '_bws.portfolio.ExposureData', 'contributions': {'BLK': {'@type': '_bws.portfolio.ExposureData', 'fullName': 'StyleBoxLargeBlendNet', 'name': 'largeBlend', 'relativeValue': 0.25, 'relativeY': 25.0, 'value': 1, 'y': 100}, 'IXN': {'@type': '_bws.portfolio.ExposureData', 'fullName': 'StyleBoxLargeBlendNet', 'name': 'largeBlend', 'relativeValue': 0.061075, 'relativeY': 6.1075, 'value': 0.2443, 'y': 24.43}, 'MALOX': {'@type': '_bws.portfolio.ExposureData', 'fullName': 'StyleBoxLargeBlendNet', 'longValue': 0.1414, 'name': 'largeBlend', 'relativeValue': 0.034325, 'relativeY': 3.4325, 'shortValue': 0.0042, 'value': 0.1373, 'y': 13.73}}, 'fullName': 'StyleBoxLargeBlendNet', 'name': 'largeBlend', 'value': 0.3454, 'y': 34.54}, {'@type': '_bws.portfolio.ExposureData', 'contributions': {'IXN': {'@type': '_bws.portfolio.ExposureData', 'fullName': 'Unknown', 'name': 'Unknown', 'relativeValue': 0.000350000000000025, 'relativeY': 0.0350000000000025, 'value': 0.0014000000000001, 'y': 0.14000000000001}, 'MALOX': {'@type': '_bws.portfolio.ExposureData', 'fullName': 'Unknown', 'name': 'Unknown', 'relativeValue': 0.12625, 'relativeY': 12.625, 'value': 0.505, 'y': 50.5}}, 'fullName': 'Unknown', 'name': 'Unknown', 'value': 0.12660000000000002, 'y': 12.660000000000002}, {'@type': '_bws.portfolio.ExposureData', 'contributions': {'IXN': {'@type': '_bws.portfolio.ExposureData', 'fullName': 'StyleBoxLargeValueNet', 'name': 'largeValue', 'relativeValue': 0.027025, 'relativeY': 2.7025, 'value': 0.1081, 'y': 10.81}, 'MALOX': {'@type': '_bws.portfolio.ExposureData', 'fullName': 'StyleBoxLargeValueNet', 'longValue': 0.1412, 'name': 'largeValue', 'relativeValue': 0.034575, 'relativeY': 3.4575, 'shortValue': 0.0029, 'value': 0.1383, 'y': 13.83}}, 'fullName': 'StyleBoxLargeValueNet', 'name': 'largeValue', 'value': 0.0616, 'y': 6.16}, {'@type': '_bws.portfolio.ExposureData', 'contributions': {'IXN': {'@type': '_bws.portfolio.ExposureData', 'fullName': 'StyleBoxMidBlendNet', 'name': 'midBlend', 'relativeValue': 0.004875, 'relativeY': 0.4875, 'value': 0.0195, 'y': 1.95}, 'MALOX': {'@type': '_bws.portfolio.ExposureData', 'fullName': 'StyleBoxMidBlendNet', 'name': 'midBlend', 'relativeValue': 0.00765, 'relativeY': 0.765, 'shortValue': 0.0, 'value': 0.0306, 'y': 3.06}}, 'fullName': 'StyleBoxMidBlendNet', 'name': 'midBlend', 'value': 0.012525, 'y': 1.2525}, {'@type': '_bws.portfolio.ExposureData', 'contributions': {'IXN': {'@type': '_bws.portfolio.ExposureData', 'fullName': 'StyleBoxMidGrowthNet', 'name': 'midGrowth', 'relativeValue': 0.006125, 'relativeY': 0.6125, 'value': 0.0245, 'y': 2.45}, 'MALOX': {'@type': '_bws.portfolio.ExposureData', 'fullName': 'StyleBoxMidGrowthNet', 'name': 'midGrowth', 'relativeValue': 0.004525, 'relativeY': 0.4525, 'shortValue': 0.0, 'value': 0.0181, 'y': 1.81}}, 'fullName': 'StyleBoxMidGrowthNet', 'name': 'midGrowth', 'value': 0.01065, 'y': 1.065}, {'@type': '_bws.portfolio.ExposureData', 'contributions': {'IXN': {'@type': '_bws.portfolio.ExposureData', 'fullName': 'StyleBoxMidValueNet', 'name': 'midValue', 'relativeValue': 0.00325, 'relativeY': 0.325, 'value': 0.013, 'y': 1.3}, 'MALOX': {'@type': '_bws.portfolio.ExposureData', 'fullName': 'StyleBoxMidValueNet', 'name': 'midValue', 'relativeValue': 0.005075, 'relativeY': 0.5075, 'shortValue': 0.0, 'value': 0.0203, 'y': 2.03}}, 'fullName': 'StyleBoxMidValueNet', 'name': 'midValue', 'value': 0.008325, 'y': 0.8325}, {'@type': '_bws.portfolio.ExposureData', 'contributions': {'MALOX': {'@type': '_bws.portfolio.ExposureData', 'fullName': 'StyleBoxSmallValueNet', 'name': 'smallValue', 'relativeValue': 0.0018, 'relativeY': 0.18, 'shortValue': 0.0, 'value': 0.0072, 'y': 0.72}}, 'fullName': 'StyleBoxSmallValueNet', 'name': 'smallValue', 'shortValue': 0.0, 'value': 0.0018, 'y': 0.18}, {'@type': '_bws.portfolio.ExposureData', 'contributions': {'MALOX': {'@type': '_bws.portfolio.ExposureData', 'fullName': 'StyleBoxSmallGrowthNet', 'name': 'smallGrowth', 'relativeValue': 0.0012, 'relativeY': 0.12, 'shortValue': 0.0, 'value': 0.0048, 'y': 0.48}}, 'fullName': 'StyleBoxSmallGrowthNet', 'name': 'smallGrowth', 'shortValue': 0.0, 'value': 0.0012, 'y': 0.12}, {'@type': '_bws.portfolio.ExposureData', 'contributions': {'MALOX': {'@type': '_bws.portfolio.ExposureData', 'fullName': 'StyleBoxSmallBlendNet', 'name': 'smallBlend', 'relativeValue': 0.0011, 'relativeY': 0.11, 'shortValue': 0.0, 'value': 0.0044, 'y': 0.44}}, 'fullName': 'StyleBoxSmallBlendNet', 'name': 'smallBlend', 'shortValue': 0.0, 'value': 0.0011, 'y': 0.11}], 'topCountries': [{'@type': '_bws.portfolio.ExposureData', 'contributions': {'AAPL': {'@type': '_bws.portfolio.ExposureData', 'fullName': 'Unknown', 'name': 'Unknown', 'relativeValue': 0.25, 'relativeY': 25.0, 'shortName': 'Unknown', 'value': 1, 'y': 100}, 'BLK': {'@type': '_bws.portfolio.ExposureData', 'fullName': 'Unknown', 'name': 'Unknown', 'relativeValue': 0.25, 'relativeY': 25.0, 'shortName': 'Unknown', 'value': 1, 'y': 100}, 'MALOX': {'@type': '_bws.portfolio.ExposureData', 'fullName': 'Unknown', 'name': 'Unknown', 'relativeValue': 0.25, 'relativeY': 25.0, 'shortName': 'Unknown', 'value': 1, 'y': 100}}, 'fullName': 'Unknown', 'name': 'Unknown', 'shortName': 'Unknown', 'value': 0.75, 'y': 75.0}, {'@type': '_bws.portfolio.ExposureData', 'contributions': {'IXN': {'@type': '_bws.portfolio.ExposureData', 'fullName': 'United States', 'name': 'United States', 'rankNumber': 1, 'relativeValue': 0.1866737825, 'relativeY': 18.66737825, 'shortName': 'US', 'value': 0.74669513, 'y': 74.669513}}, 'fullName': 'United States', 'name': 'United States', 'rankNumber': 1, 'shortName': 'US', 'value': 0.1866737825, 'y': 18.66737825}, {'@type': '_bws.portfolio.ExposureData', 'contributions': {'IXN': {'@type': '_bws.portfolio.ExposureData', 'fullName': 'Japan', 'name': 'Japan', 'rankNumber': 2, 'relativeValue': 0.012996205, 'relativeY': 1.2996205, 'shortName': 'JP', 'value': 0.05198482, 'y': 5.198482}}, 'fullName': 'Japan', 'name': 'Japan', 'rankNumber': 2, 'shortName': 'JP', 'value': 0.012996205, 'y': 1.2996205}, {'@type': '_bws.portfolio.ExposureData', 'contributions': {'IXN': {'@type': '_bws.portfolio.ExposureData', 'fullName': 'Korea (South)', 'name': 'Korea (South)', 'rankNumber': 3, 'relativeValue': 0.0109211625, 'relativeY': 1.09211625, 'shortName': 'KR', 'value': 0.04368465, 'y': 4.368465}}, 'fullName': 'Korea (South)', 'name': 'Korea (South)', 'rankNumber': 3, 'shortName': 'KR', 'value': 0.0109211625, 'y': 1.09211625}, {'@type': '_bws.portfolio.ExposureData', 'contributions': {'IXN': {'@type': '_bws.portfolio.ExposureData', 'fullName': 'China', 'name': 'China', 'rankNumber': 4, 'relativeValue': 0.00908179, 'relativeY': 0.908179, 'shortName': 'CN', 'value': 0.03632716, 'y': 3.632716}}, 'fullName': 'China', 'name': 'China', 'rankNumber': 4, 'shortName': 'CN', 'value': 0.00908179, 'y': 0.908179}, {'@type': '_bws.portfolio.ExposureData', 'contributions': {'IXN': {'@type': '_bws.portfolio.ExposureData', 'fullName': 'Taiwan', 'name': 'Taiwan', 'rankNumber': 5, 'relativeValue': 0.0084154175, 'relativeY': 0.84154175, 'shortName': 'TW', 'value': 0.03366167, 'y': 3.366167}}, 'fullName': 'Taiwan', 'name': 'Taiwan', 'rankNumber': 5, 'shortName': 'TW', 'value': 0.0084154175, 'y': 0.84154175}, {'@type': '_bws.portfolio.ExposureData', 'contributions': {'IXN': {'@type': '_bws.portfolio.ExposureData', 'fullName': 'Germany', 'name': 'Germany', 'rankNumber': 6, 'relativeValue': 0.0056733225, 'relativeY': 0.56733225, 'shortName': 'DE', 'value': 0.02269329, 'y': 2.269329}}, 'fullName': 'Germany', 'name': 'Germany', 'rankNumber': 6, 'shortName': 'DE', 'value': 0.0056733225, 'y': 0.56733225}, {'@type': '_bws.portfolio.ExposureData', 'contributions': {'IXN': {'@type': '_bws.portfolio.ExposureData', 'fullName': 'Singapore', 'name': 'Singapore', 'rankNumber': 7, 'relativeValue': 0.00376127, 'relativeY': 0.376127, 'shortName': 'SG', 'value': 0.01504508, 'y': 1.504508}}, 'fullName': 'Singapore', 'name': 'Singapore', 'rankNumber': 7, 'shortName': 'SG', 'value': 0.00376127, 'y': 0.376127}, {'@type': '_bws.portfolio.ExposureData', 'contributions': {'IXN': {'@type': '_bws.portfolio.ExposureData', 'fullName': 'Netherlands', 'name': 'Netherlands', 'rankNumber': 8, 'relativeValue': 0.0029531475, 'relativeY': 0.29531475, 'shortName': 'NL', 'value': 0.01181259, 'y': 1.181259}}, 'fullName': 'Netherlands', 'name': 'Netherlands', 'rankNumber': 8, 'shortName': 'NL', 'value': 0.0029531475, 'y': 0.29531475}, {'@type': '_bws.portfolio.ExposureData', 'contributions': {'IXN': {'@type': '_bws.portfolio.ExposureData', 'fullName': 'France', 'name': 'France', 'rankNumber': 9, 'relativeValue': 0.0017842275, 'relativeY': 0.17842275, 'shortName': 'FR', 'value': 0.00713691, 'y': 0.713691}}, 'fullName': 'France', 'name': 'France', 'rankNumber': 9, 'shortName': 'FR', 'value': 0.0017842275, 'y': 0.17842275}, {'@type': '_bws.portfolio.ExposureData', 'contributions': {'IXN': {'@type': '_bws.portfolio.ExposureData', 'fullName': 'Switzerland', 'name': 'Switzerland', 'rankNumber': 10, 'relativeValue': 0.0016143825, 'relativeY': 0.16143825, 'shortName': 'CH', 'value': 0.00645753, 'y': 0.645753}}, 'fullName': 'Switzerland', 'name': 'Switzerland', 'rankNumber': 10, 'shortName': 'CH', 'value': 0.0016143825, 'y': 0.16143825}, {'@type': '_bws.portfolio.ExposureData', 'contributions': {'IXN': {'@type': '_bws.portfolio.ExposureData', 'fullName': 'Finland', 'name': 'Finland', 'rankNumber': 11, 'relativeValue': 0.0013393475, 'relativeY': 0.13393475, 'shortName': 'FI', 'value': 0.00535739, 'y': 0.535739}}, 'fullName': 'Finland', 'name': 'Finland', 'rankNumber': 11, 'shortName': 'FI', 'value': 0.0013393475, 'y': 0.13393475}, {'@type': '_bws.portfolio.ExposureData', 'contributions': {'IXN': {'@type': '_bws.portfolio.ExposureData', 'fullName': 'Sweden', 'name': 'Sweden', 'rankNumber': 12, 'relativeValue': 0.001153785, 'relativeY': 0.1153785, 'shortName': 'SE', 'value': 0.00461514, 'y': 0.461514}}, 'fullName': 'Sweden', 'name': 'Sweden', 'rankNumber': 12, 'shortName': 'SE', 'value': 0.001153785, 'y': 0.1153785}, {'@type': '_bws.portfolio.ExposureData', 'contributions': {'IXN': {'@type': '_bws.portfolio.ExposureData', 'fullName': 'Canada', 'name': 'Canada', 'rankNumber': 13, 'relativeValue': 0.0011296975, 'relativeY': 0.11296975, 'shortName': 'CA', 'value': 0.00451879, 'y': 0.451879}}, 'fullName': 'Canada', 'name': 'Canada', 'rankNumber': 13, 'shortName': 'CA', 'value': 0.0011296975, 'y': 0.11296975}, {'@type': '_bws.portfolio.ExposureData', 'contributions': {'IXN': {'@type': '_bws.portfolio.ExposureData', 'fullName': 'Spain', 'name': 'Spain', 'rankNumber': 14, 'relativeValue': 0.001092735, 'relativeY': 0.1092735, 'shortName': 'ES', 'value': 0.00437094, 'y': 0.437094}}, 'fullName': 'Spain', 'name': 'Spain', 'rankNumber': 14, 'shortName': 'ES', 'value': 0.001092735, 'y': 0.1092735}, {'@type': '_bws.portfolio.ExposureData', 'contributions': {'IXN': {'@type': '_bws.portfolio.ExposureData', 'fullName': 'United Kingdom', 'name': 'United Kingdom', 'rankNumber': 15, 'relativeValue': 0.000396115, 'relativeY': 0.0396115, 'shortName': 'GB', 'value': 0.00158446, 'y': 0.158446}}, 'fullName': 'United Kingdom', 'name': 'United Kingdom', 'rankNumber': 15, 'shortName': 'GB', 'value': 0.000396115, 'y': 0.0396115}, {'@type': '_bws.portfolio.ExposureData', 'contributions': {'IXN': {'@type': '_bws.portfolio.ExposureData', 'fullName': 'Ireland', 'name': 'Ireland', 'rankNumber': 16, 'relativeValue': 0.0003650925, 'relativeY': 0.03650925, 'shortName': 'IE', 'value': 0.00146037, 'y': 0.146037}}, 'fullName': 'Ireland', 'name': 'Ireland', 'rankNumber': 16, 'shortName': 'IE', 'value': 0.0003650925, 'y': 0.03650925}, {'@type': '_bws.portfolio.ExposureData', 'contributions': {'IXN': {'@type': '_bws.portfolio.ExposureData', 'fullName': 'Brazil', 'name': 'Brazil', 'rankNumber': 17, 'relativeValue': 0.000293285, 'relativeY': 0.0293285, 'shortName': 'BR', 'value': 0.00117314, 'y': 0.117314}}, 'fullName': 'Brazil', 'name': 'Brazil', 'rankNumber': 17, 'shortName': 'BR', 'value': 0.000293285, 'y': 0.0293285}, {'@type': '_bws.portfolio.ExposureData', 'contributions': {'IXN': {'@type': '_bws.portfolio.ExposureData', 'fullName': 'Australia', 'name': 'Australia', 'rankNumber': 18, 'relativeValue': 0.00022119, 'relativeY': 0.022119, 'shortName': 'AU', 'value': 0.00088476, 'y': 0.088476}}, 'fullName': 'Australia', 'name': 'Australia', 'rankNumber': 18, 'shortName': 'AU', 'value': 0.00022119, 'y': 0.022119}], 'topSectors': [{'@type': '_bws.portfolio.ExposureData', 'contributions': {'AAPL': {'@type': '_bws.portfolio.ExposureData', 'fullName': 'Unknown', 'name': 'Unknown', 'relativeValue': 0.25, 'relativeY': 25.0, 'shortName': 'Unknown', 'value': 1, 'y': 100}, 'BLK': {'@type': '_bws.portfolio.ExposureData', 'fullName': 'Unknown', 'name': 'Unknown', 'relativeValue': 0.25, 'relativeY': 25.0, 'shortName': 'Unknown', 'value': 1, 'y': 100}, 'MALOX': {'@type': '_bws.portfolio.ExposureData', 'fullName': 'Unknown', 'name': 'Unknown', 'relativeValue': 0.25, 'relativeY': 25.0, 'shortName': 'Unknown', 'value': 1, 'y': 100}}, 'fullName': 'Unknown', 'name': 'Unknown', 'shortName': 'Unknown', 'value': 0.75, 'y': 75.0}, {'@type': '_bws.portfolio.ExposureData', 'contributions': {'IXN': {'@type': '_bws.portfolio.ExposureData', 'fullName': 'Information Technology1.Information Technology2.Software & Services3', 'name': 'Software & Services', 'rankNumber': 1, 'relativeValue': 0.1353199575, 'relativeY': 13.53199575, 'shortName': 'SS_S & P', 'value': 0.54127983, 'y': 54.127983}}, 'fullName': 'Information Technology1.Information Technology2.Software & Services3', 'name': 'Software & Services', 'rankNumber': 1, 'shortName': 'SS_S & P', 'value': 0.1353199575, 'y': 13.53199575}, {'@type': '_bws.portfolio.ExposureData', 'contributions': {'IXN': {'@type': '_bws.portfolio.ExposureData', 'fullName': 'Information Technology1.Information Technology2.Technology Hardware & Equipment3', 'name': 'Technology Hardware & Equipment', 'rankNumber': 2, 'relativeValue': 0.0691856375, 'relativeY': 6.91856375, 'shortName': 'SS_S & P', 'value': 0.27674255, 'y': 27.674255}}, 'fullName': 'Information Technology1.Information Technology2.Technology Hardware & Equipment3', 'name': 'Technology Hardware & Equipment', 'rankNumber': 2, 'shortName': 'SS_S & P', 'value': 0.0691856375, 'y': 6.91856375}, {'@type': '_bws.portfolio.ExposureData', 'contributions': {'IXN': {'@type': '_bws.portfolio.ExposureData', 'fullName': 'Information Technology1.Information Technology2.Semiconductors & Semiconductor Equipmen3', 'name': 'SEMICONDUCTORS & SEMICONDUCTOR EQUIPMEN', 'rankNumber': 3, 'relativeValue': 0.04372023, 'relativeY': 4.372023, 'shortName': 'SS_S & P', 'value': 0.17488092, 'y': 17.488092}}, 'fullName': 'Information Technology1.Information Technology2.Semiconductors & Semiconductor Equipmen3', 'name': 'SEMICONDUCTORS & SEMICONDUCTOR EQUIPMEN', 'rankNumber': 3, 'shortName': 'SS_S & P', 'value': 0.04372023, 'y': 4.372023}, {'@type': '_bws.portfolio.ExposureData', 'contributions': {'IXN': {'@type': '_bws.portfolio.ExposureData', 'fullName': 'Financials1.Financials2.Real Estate3', 'name': 'Real Estate', 'rankNumber': 4, 'relativeValue': 0.00075629, 'relativeY': 0.075629, 'shortName': 'SS_S & P', 'value': 0.00302516, 'y': 0.302516}}, 'fullName': 'Financials1.Financials2.Real Estate3', 'name': 'Real Estate', 'rankNumber': 4, 'shortName': 'SS_S & P', 'value': 0.00075629, 'y': 0.075629}, {'@type': '_bws.portfolio.ExposureData', 'contributions': {'IXN': {'@type': '_bws.portfolio.ExposureData', 'fullName': 'Technology1.Technology2.Software & Computer Services3', 'name': 'Software & Computer Services', 'rankNumber': 5, 'relativeValue': 0.00052393, 'relativeY': 0.052393, 'shortName': 'SS_S & P', 'value': 0.00209572, 'y': 0.209572}}, 'fullName': 'Technology1.Technology2.Software & Computer Services3', 'name': 'Software & Computer Services', 'rankNumber': 5, 'shortName': 'SS_S & P', 'value': 0.00052393, 'y': 0.052393}]}, 'countries': [{'@type': '_bws.portfolio.ExposureData', 'color': '#293D00', 'deltaAdjustedNotionalPercent': 1.0, 'fullName': 'US', 'name': 'United States', 'shortName': 'US', 'value': 1.0, 'y': 100.0}], 'sectors': [{'@type': '_bws.portfolio.ExposureData', 'name': 'Unknown', 'value': 0.5, 'y': 50.0}, {'@type': '_bws.portfolio.ExposureData', 'name': 'World Allocation', 'value': 0.25, 'y': 25.0}, {'@type': '_bws.portfolio.ExposureData', 'name': 'Technology', 'value': 0.25, 'y': 25.0}], 'topHoldings': [{'@type': '_bws.investments.Security', 'ticker': 'AAPL', 'uniqueId': 'E0USA002US', 'countryCode': 'USA', 'currency': 'USD', 'cusip': '037833100', 'datesMap': {'firstBoughtDate': 1272585600000}, 'isin': 'US0378331005', 'marketValue': 397202502.0, 'securityName': 'Apple Inc', 'weight': 3.2934875, 'shares': 2670628, 'holdingDetailId': 'E0USA002US', 'industryId': '31167138', 'sectorId': '311', 'sharesChange': 2562, 'detailHoldingTypeId': 'E'}, {'@type': '_bws.investments.Security', 'ticker': 'MSFT', 'uniqueId': 'E0USA00A05', 'countryCode': 'USA', 'currency': 'USD', 'cusip': '594918104', 'datesMap': {'firstBoughtDate': 1101772800000}, 'isin': 'US5949181045', 'marketValue': 127844207.0, 'securityName': 'Microsoft Corp', 'weight': 2.1941825, 'shares': 1716260, 'holdingDetailId': 'E0USA00A05', 'industryId': '31165134', 'sectorId': '311', 'sharesChange': 0, 'detailHoldingTypeId': 'E'}, {'@type': '_bws.investments.Security', 'ticker': 'FB', 'uniqueId': 'F00000O7NO', 'countryCode': 'USA', 'currency': 'USD', 'cusip': '30303M102', 'datesMap': {'firstBoughtDate': 1387756800000}, 'isin': 'US30303M1027', 'marketValue': 90198001.0, 'securityName': 'Facebook Inc A', 'weight': 1.5480625, 'shares': 527875, 'holdingDetailId': 'F00000O7NO', 'industryId': '31168144', 'sectorId': '311', 'sharesChange': 0, 'detailHoldingTypeId': 'E'}, {'@type': '_bws.investments.Security', 'ticker': 'GOOGL', 'uniqueId': 'E0USA04B8G', 'countryCode': 'USA', 'currency': 'USD', 'cusip': '02079K305', 'datesMap': {'firstBoughtDate': 1146355200000}, 'isin': 'US02079K3059', 'marketValue': 64874095.0, 'securityName': 'Alphabet Inc A', 'weight': 1.11343, 'shares': 66625, 'holdingDetailId': 'E0USA04B8G', 'industryId': '31168144', 'sectorId': '311', 'sharesChange': 0, 'detailHoldingTypeId': 'E'}, {'@type': '_bws.investments.Security', 'ticker': 'GOOG', 'uniqueId': 'F00000SVTK', 'countryCode': 'USA', 'currency': 'USD', 'cusip': '02079K107', 'datesMap': {'firstBoughtDate': 1396483200000}, 'isin': 'US02079K1079', 'marketValue': 64293939.0, 'securityName': 'Alphabet Inc C', 'weight': 1.1034725, 'shares': 67035, 'holdingDetailId': 'F00000SVTK', 'industryId': '31168144', 'sectorId': '311', 'sharesChange': 0, 'detailHoldingTypeId': 'E'}, {'@type': '_bws.investments.Security', 'ticker': 'TCTZF', 'uniqueId': 'E0HKG04BT3', 'countryCode': 'CHN', 'currency': 'HKD', 'cusip': 'G87572163', 'datesMap': {'firstBoughtDate': 1411344000000}, 'isin': 'KYG875721634', 'marketValue': 52943526.0, 'securityName': 'Tencent Holdings Ltd', 'weight': 0.908665, 'shares': 1230000, 'holdingDetailId': 'E0HKG04BT3', 'industryId': '31168144', 'sectorId': '311', 'sharesChange': 0, 'detailHoldingTypeId': 'E'}, {'@type': '_bws.investments.Security', 'uniqueId': 'US912828XR65', 'countryCode': 'USA', 'coupon': 1.75, 'currency': 'USD', 'cusip': '912828XR6', 'datesMap': {'maturityDate': 1653955200000}, 'isin': 'US912828XR65', 'marketValue': 1373244388.0, 'securityName': 'US Treasury Note 1.75%', 'weight': 0.863645, 'altMinTaxEligible': True, 'shares': 1373798500, 'sharesChange': 1373798500, 'detailHoldingTypeId': 'BT', 'rule144aEligible': False, 'lessThanOneYearBond': False}, {'@type': '_bws.investments.Security', 'ticker': 'SSNLF', 'uniqueId': 'E0KOR0149C', 'countryCode': 'KOR', 'currency': 'KRW', 'cusip': 'Y74718100', 'datesMap': {'firstBoughtDate': 1317340800000}, 'isin': 'KR7005930003', 'marketValue': 50021897.0, 'securityName': 'Samsung Electronics Co Ltd', 'weight': 0.8585225, 'shares': 22345, 'holdingDetailId': 'E0KOR0149C', 'industryId': '31167138', 'sectorId': '311', 'sharesChange': 0, 'detailHoldingTypeId': 'E'}, {'@type': '_bws.investments.Security', 'uniqueId': 'US912828X471', 'countryCode': 'USA', 'coupon': 1.88, 'currency': 'USD', 'cusip': '912828X47', 'datesMap': {'maturityDate': 1651276800000}, 'isin': 'US912828X471', 'marketValue': 1351829487.0, 'securityName': 'US Treasury Note 1.875%', 'weight': 0.8501775, 'altMinTaxEligible': True, 'shares': 1342142600, 'sharesChange': -1376112800, 'detailHoldingTypeId': 'BT', 'rule144aEligible': False, 'lessThanOneYearBond': False}, {'@type': '_bws.investments.Security', 'uniqueId': 'US912828XW50', 'countryCode': 'USA', 'coupon': 1.75, 'currency': 'USD', 'cusip': '912828XW5', 'datesMap': {'maturityDate': 1656547200000}, 'isin': 'US912828XW50', 'marketValue': 1235399638.0, 'securityName': 'US Treasury Note 1.75%', 'weight': 0.7769525, 'altMinTaxEligible': True, 'shares': 1238254800, 'sharesChange': 1238254800, 'detailHoldingTypeId': 'BT', 'rule144aEligible': False, 'lessThanOneYearBond': False}, {'@type': '_bws.investments.Security', 'ticker': 'V', 'uniqueId': 'F000001AY4', 'countryCode': 'USA', 'currency': 'USD', 'cusip': '92826C839', 'datesMap': {'firstBoughtDate': 1261353600000}, 'isin': 'US92826C8394', 'marketValue': 42954232.0, 'securityName': 'Visa Inc Class A', 'weight': 0.73722, 'shares': 408155, 'holdingDetailId': 'F000001AY4', 'industryId': '10322056', 'sectorId': '103', 'sharesChange': 0, 'detailHoldingTypeId': 'E'}, {'@type': '_bws.investments.Security', 'ticker': 'INTC', 'uniqueId': 'E0USA008CA', 'countryCode': 'USA', 'currency': 'USD', 'cusip': '458140100', 'datesMap': {'firstBoughtDate': 1017532800000}, 'isin': 'US4581401001', 'marketValue': 39781414.0, 'securityName': 'Intel Corp', 'weight': 0.682765, 'shares': 1044680, 'holdingDetailId': 'E0USA008CA', 'industryId': '31169147', 'sectorId': '311', 'sharesChange': 0, 'detailHoldingTypeId': 'E'}, {'@type': '_bws.investments.Security', 'uniqueId': 'FEUSA04AD2', 'countryCode': 'USA', 'currency': 'USD', 'cusip': '78463V107', 'isin': 'US78463V1070', 'marketValue': 1041537215.0, 'securityName': 'SPDR Gold Shares', 'weight': 0.65503, 'shares': 8625567, 'holdingDetailId': 'FEUSA04AD2', 'sharesChange': 256835, 'detailHoldingTypeId': 'FE'}, {'@type': '_bws.investments.Security', 'ticker': 'CSCO', 'uniqueId': 'E0USA004RM', 'countryCode': 'USA', 'currency': 'USD', 'cusip': '17275R102', 'datesMap': {'firstBoughtDate': 1017532800000}, 'isin': 'US17275R1023', 'marketValue': 37435234.0, 'securityName': 'Cisco Systems Inc', 'weight': 0.6424975, 'shares': 1113150, 'holdingDetailId': 'E0USA004RM', 'industryId': '31166135', 'sectorId': '311', 'sharesChange': 0, 'detailHoldingTypeId': 'E'}, {'@type': '_bws.investments.Security', 'uniqueId': 'US912828V988', 'countryCode': 'USA', 'coupon': 2.25, 'currency': 'USD', 'cusip': '912828V98', 'datesMap': {'maturityDate': 1802649600000}, 'isin': 'US912828V988', 'marketValue': 785732801.0, 'securityName': 'US Treasury Note 2.25%', 'weight': 0.4941525, 'altMinTaxEligible': True, 'shares': 780156500, 'sharesChange': -37545200, 'detailHoldingTypeId': 'BT', 'rule144aEligible': False, 'lessThanOneYearBond': False}, {'@type': '_bws.investments.Security', 'uniqueId': 'US912828X398', 'countryCode': 'USA', 'coupon': 0.13, 'currency': 'USD', 'cusip': '912828X39', 'datesMap': {'maturityDate': 1649980800000}, 'isin': 'US912828X398', 'marketValue': 716753271.0, 'securityName': 'US Treasury Note', 'weight': 0.4507725, 'altMinTaxEligible': True, 'shares': 716449298, 'sharesChange': 716449298, 'detailHoldingTypeId': 'TP', 'rule144aEligible': False, 'lessThanOneYearBond': False}, {'@type': '_bws.investments.Security', 'uniqueId': 'AU000GSBM224', 'countryCode': 'AUS', 'coupon': 5.75, 'currency': 'AUD', 'cusip': 'Q08184LM5', 'datesMap': {'maturityDate': 1657843200000}, 'isin': 'AU000GSBM224', 'marketValue': 549895442.0, 'securityName': 'Australia(Cmnwlth) 5.75%', 'weight': 0.3458325, 'shares': 588654000, 'sharesChange': 588654000, 'detailHoldingTypeId': 'BT', 'rule144aEligible': False, 'lessThanOneYearBond': False}, {'@type': '_bws.investments.Security', 'ticker': 'AMZN', 'uniqueId': 'E0USA00XDD', 'countryCode': 'USA', 'currency': 'USD', 'cusip': '023135106', 'datesMap': {'firstBoughtDate': 1454198400000}, 'isin': 'US0231351067', 'marketValue': 351352358.0, 'securityName': 'Amazon.com Inc', 'weight': 0.2209675, 'shares': 355699, 'holdingDetailId': 'E0USA00XDD', 'industryId': '10217037', 'sectorId': '102', 'sharesChange': -16969, 'detailHoldingTypeId': 'E'}, {'@type': '_bws.investments.Security', 'uniqueId': 'CA135087F668', 'countryCode': 'CAN', 'coupon': 0.5, 'currency': 'CAD', 'cusip': '135087F66', 'datesMap': {'maturityDate': 1533081600000}, 'isin': 'CA135087F668', 'marketValue': 319698082.0, 'securityName': 'Canada Govt 0.5%', 'weight': 0.20106, 'altMinTaxEligible': True, 'shares': 401615000, 'sharesChange': -18857000, 'detailHoldingTypeId': 'BT', 'rule144aEligible': False, 'lessThanOneYearBond': False}]}, 'holdings': [{'@type': '_bws.investments.Security', 'success': True, 'score': 1.0, 'bcusip': '09247X101', 'market': 'New York', 'marketCode': 'US', 'securityId': 'BLK@09247X101@US09247X1019', 'securityIdType': 'SECURITY_ID', 'securityType': 'Common Stock', 'ticker': 'BLK', 'uniqueId': 'BLK@09247X101@US09247X1019@20170831', 'updateTimestamp': 1507331765325, 'asOfDate': 20170831, 'assetClass': 'Equity', 'assetType': 'Stock', 'availability': 'public', 'barraId': 'USA3351', 'bbIdCompany': '963246', 'bbIdComposite': 'BBG000C2PW58', 'bbIdGlobal': 'BBG000C2PW58', 'bbIdUnique': 'EQ0096324600001000', 'blackrockFund': False, 'bloombergId': 'BBG000C2PW58', 'bloombergTicker': 'BLK US', 'breakdowns': {'assetAllocation': [{'@type': '_bws.portfolio.ExposureData', 'fullName': 'AssetAllocationUSStockNet', 'name': 'usStock', 'relativeValue': 0.25, 'relativeY': 25.0, 'value': 1, 'y': 100}], 'creditQuality': [{'@type': '_bws.portfolio.ExposureData', 'name': 'other', 'relativeValue': 0.25, 'relativeY': 25.0, 'value': 1, 'y': 100}], 'region': [{'@type': '_bws.portfolio.ExposureData', 'breakdowns': {'northAmerica': {'@type': '_bws.portfolio.ExposureData', 'breakdowns': {'unitedStates': {'@type': '_bws.portfolio.ExposureData', 'fullName': 'RegionUnitedStatesNet', 'name': 'unitedStates', 'value': 1, 'y': 100}}, 'name': 'northAmerica', 'value': 1, 'y': 100}}, 'name': 'americas', 'relativeValue': 0.25, 'relativeY': 25.0, 'value': 1, 'y': 100}], 'stockSector': [{'@type': '_bws.portfolio.ExposureData', 'fullName': 'StockSectorFinancialServicesNet', 'name': 'financialServices', 'relativeValue': 0.25, 'relativeY': 25.0, 'value': 1, 'y': 100}], 'styleBox': [{'@type': '_bws.portfolio.ExposureData', 'fullName': 'StyleBoxLargeBlendNet', 'name': 'largeBlend', 'relativeValue': 0.25, 'relativeY': 25.0, 'value': 1, 'y': 100}]}, 'characteristicsMap': {'arwmDate': 20170831, 'arwmSolrId': '20170831@09247X101@PROD', 'enabled_apb': 'true'}, 'country': 'United States', 'countryCode': 'US', 'currency': 'USD', 'cusip': '09247X101', 'description': 'BLACKROCK INC', 'eqPricesNavId': {'@type': '_bws.investments.IdentifierParam', 'identifier': 'Z915MB6N7', 'identifierType': 'GLOBAL_ID'}, 'exchangeAcronym': 'NYSE', 'exchangeBbCompositeId': 'US', 'exchangeBbId': 'UP', 'exchangeCountryCode': 'US', 'exchangeMic': 'ARCX', 'exchangeName': 'NYSE ARCA', 'exchangeType': 'EQUITY', 'flagsMap': {'aeonPrimary': True}, 'gics1Sector': 'Financials', 'gics2IndustryGroup': 'Diversified Financials', 'gics3Industry': 'Capital Markets', 'gics4SubIndustry': 'Asset Management & Custody Banks', 'gicsCode': '40203010', 'globalId': 'Z915MB6N7', 'isin': 'US09247X1019', 'issFtse1Industry': 'Financials', 'issFtse2SuperSector': 'Financial Services', 'issFtse3Sector': 'Financial Services', 'issFtse4SubSector': 'Asset Managers', 'issFtseCode': '8771', 'legalType': 'Unbucketed', 'pricingCusip': '09247X101', 'recordType': 'security', 'requestId': '0', 'requestIdParam': {'@type': '_bws.portfolio.SimpleHolding', 'identifier': 'BLK', 'uniqueId': '0', 'weight': 25.0}, 'requestParam': 'BLK', 'requestSecurity': {'@type': '_bws.portfolio.SimpleHolding', 'identifier': 'BLK', 'uniqueId': '0', 'weight': 25.0}, 'returnOnAssets': 1.4840400218963623, 'riskCusip': '09247X101', 'secType': 'EQUITY', 'securityGroup': 'EQUITY', 'securityName': 'BLACKROCK INC', 'sedol': '2494504', 'weight': 25.0}, {'@type': '_bws.investments.Security', 'success': True, 'score': 1.0, 'bcusip': '037833100', 'market': 'NASDAQ GS', 'marketCode': 'US', 'securityId': 'AAPL@037833100@US0378331005', 'securityIdType': 'SECURITY_ID', 'securityType': 'Common Stock', 'ticker': 'AAPL', 'uniqueId': 'AAPL@037833100@US0378331005@20170831', 'updateTimestamp': 1507331765153, 'asOfDate': 20170831, 'assetClass': 'Equity', 'assetType': 'Stock', 'availability': 'public', 'barraId': 'USAB1X1', 'bbIdCompany': '101695', 'bbIdComposite': 'BBG000B9XRY4', 'bbIdGlobal': 'BBG000B9XRY4', 'bbIdUnique': 'EQ0010169500001000', 'blackrockFund': False, 'bloombergId': 'BBG000B9XRY4', 'bloombergTicker': 'AAPL US', 'breakdowns': {'assetAllocation': [{'@type': '_bws.portfolio.ExposureData', 'fullName': 'AssetAllocationUSStockNet', 'name': 'usStock', 'relativeValue': 0.25, 'relativeY': 25.0, 'value': 1, 'y': 100}], 'creditQuality': [{'@type': '_bws.portfolio.ExposureData', 'name': 'other', 'relativeValue': 0.25, 'relativeY': 25.0, 'value': 1, 'y': 100}], 'region': [{'@type': '_bws.portfolio.ExposureData', 'breakdowns': {'northAmerica': {'@type': '_bws.portfolio.ExposureData', 'breakdowns': {'unitedStates': {'@type': '_bws.portfolio.ExposureData', 'fullName': 'RegionUnitedStatesNet', 'name': 'unitedStates', 'value': 1, 'y': 100}}, 'name': 'northAmerica', 'value': 1, 'y': 100}}, 'name': 'americas', 'relativeValue': 0.25, 'relativeY': 25.0, 'value': 1, 'y': 100}], 'stockSector': [{'@type': '_bws.portfolio.ExposureData', 'fullName': 'StockSectorTechnologyNet', 'name': 'technology', 'relativeValue': 0.25, 'relativeY': 25.0, 'value': 1, 'y': 100}], 'styleBox': [{'@type': '_bws.portfolio.ExposureData', 'fullName': 'StyleBoxLargeGrowthNet', 'name': 'largeGrowth', 'relativeValue': 0.25, 'relativeY': 25.0, 'value': 1, 'y': 100}]}, 'characteristicsMap': {'arwmDate': 20170831, 'arwmSolrId': '20170831@037833100@PROD', 'enabled_apb': 'true'}, 'country': 'United States', 'countryCode': 'US', 'currency': 'USD', 'cusip': '037833100', 'description': 'APPLE INC', 'eqPricesNavId': {'@type': '_bws.investments.IdentifierParam', 'identifier': 'Z915M8034', 'identifierType': 'GLOBAL_ID'}, 'exchangeAcronym': 'NASDAQ', 'exchangeBbCompositeId': 'US', 'exchangeBbId': 'UW', 'exchangeCountryCode': 'US', 'exchangeMic': 'XNAS', 'exchangeName': 'NASDAQ - ALL MARKETS', 'exchangeType': 'EQUITY', 'flagsMap': {'aeonPrimary': True}, 'gics1Sector': 'Information Technology', 'gics2IndustryGroup': 'Technology Hardware & Equipment', 'gics3Industry': 'Technology Hardware, Storage & Peripherals', 'gics4SubIndustry': 'Technology Hardware, Storage & Peripherals', 'gicsCode': '45202030', 'globalId': 'Z915M8034', 'isin': 'US0378331005', 'issFtse1Industry': 'Technology', 'issFtse2SuperSector': 'Technology', 'issFtse3Sector': 'Technology Hardware & Equipment', 'issFtse4SubSector': 'Computer Hardware', 'issFtseCode': '9572', 'legalType': 'Unbucketed', 'pricingCusip': '037833100', 'recordType': 'security', 'requestId': '1', 'requestIdParam': {'@type': '_bws.portfolio.SimpleHolding', 'identifier': 'AAPL', 'uniqueId': '1', 'weight': 25.0}, 'requestParam': 'AAPL', 'requestSecurity': {'@type': '_bws.portfolio.SimpleHolding', 'identifier': 'AAPL', 'uniqueId': '1', 'weight': 25.0}, 'returnOnAssets': 15.238900184631348, 'riskCusip': '037833100', 'secType': 'EQUITY', 'securityGroup': 'EQUITY', 'securityName': 'APPLE INC', 'sedol': '2046251', 'weight': 25.0},